{
    "type": "FeatureCollection",
    "features": [
      { "type": "Feature", "geometry": { "type": "Point", "coordinates": [55.56417, 39.121711] }, "properties": { "name": "Фарм", "address": "д. 28", "phone": ["+7 (496) 417-21-78"], "id": "3632", "city": "АВСЮНИНО" }},
      { "type": "Feature", "geometry": { "type": "Point", "coordinates": [56.028042, 36.807319] }, "properties": { "name": "Союз", "address": "", "phone": ["+7 (498) 317-27-59"], "id": "3482", "city": "АЛЕХНОВО" }},
      { "type": "Feature", "geometry": { "type": "Point", "coordinates": [55.902313, 38.116524] }, "properties": { "name": "ЛЕОФАРМ", "address": "д. 3", "phone": ["+7 (496) 250-17-40"], "id": "6863", "city": "АНИЧКОВО" }},
      { "type": "Feature", "geometry": { "type": "Point", "coordinates": [55.5421, 37.079769] }, "properties": { "name": "МАГНА-ФАРМ", "social": true,  "address": "Цветочная аллея, д. 11", "phone": ["+7 (905) 747-07-74"], "id": "112205", "city": "АПРЕЛЕВКА"}},
      { "type": "Feature", "geometry": { "type": "Point", "coordinates": [56.032846, 35.744478] }, "properties": { "name": "ВУЛКАН-2", "address": "Ильинская, д. 1, а, стр. 1", "phone": ["+7 (903) 759-25-62"], "id": "31717", "city": "АФАНАСОВО" }},
      { "type": "Feature", "geometry": { "type": "Point", "coordinates": [55.807208, 38.052411] }, "properties": { "name": "Айболит", "address": "Владимирская, д. 139", "phone": [""], "id": "3888", "city": "БАЛАШИХА" }},
      { "type": "Feature", "geometry": { "type": "Point", "coordinates": [55.8339, 37.931111] }, "properties": { "name": "Мирафарм", "social": true,  "address": "Дмитриева, д. 26", "phone": ["+7 (915) 352-34-09"], "id": "31370", "city": "БАЛАШИХА"}},
      { "type": "Feature", "geometry": { "type": "Point", "coordinates": [55.823191, 37.881596] }, "properties": { "name": "СоцАптека", "address": "Кольцевая, д. 8", "phone": ["+7 (498) 500-42-34"], "id": "563", "city": "БАЛАШИХА" }},
      { "type": "Feature", "geometry": { "type": "Point", "coordinates": [55.799537, 37.935693] }, "properties": { "name": "Столетник", "address": "Крупской, д. 13", "phone": ["+7 (926) 641-40-44"], "id": "11470", "city": "БАЛАШИХА" }},
      { "type": "Feature", "geometry": { "type": "Point", "coordinates": [55.835321, 37.935765] }, "properties": { "name": "ДИАНА-МЕД", "address": "Лукино, д. 57, а", "phone": ["+7 (966) 043-95-08"], "id": "16458", "city": "БАЛАШИХА" }},
      { "type": "Feature", "geometry": { "type": "Point", "coordinates": [55.793492, 37.971692] }, "properties": { "name": "А-МЕГА", "address": "Некрасова, д. 5", "phone": ["+7 (903) 753-87-98"], "id": "85583", "city": "БАЛАШИХА" }},
      { "type": "Feature", "geometry": { "type": "Point", "coordinates": [55.805189, 37.980609] }, "properties": { "name": "Брин фарм", "address": "Октяьская, д. 5", "phone": ["+7 (496) 303-23-64", "+7 (496) 523-73-10", "+7 (963) 686-85-85"], "id": "163868", "city": "БАЛАШИХА" }},
      { "type": "Feature", "geometry": { "type": "Point", "coordinates": [55.796204252718, 37.926816338623] }, "properties": { "name": "Эльфарм", "address": "Победы, д. 4", "phone": ["+7 (495) 524-22-30", "+7 (495) 943-99-87"], "id": "2987", "city": "БАЛАШИХА" }},
      { "type": "Feature", "geometry": { "type": "Point", "coordinates": [55.742407, 38.001979] }, "properties": { "name": "У Палыча и Т", "address": "проспект Героев, д. 2", "phone": ["+7 (498) 785-73-70"], "id": "112331", "city": "БАЛАШИХА" }},
      { "type": "Feature", "geometry": { "type": "Point", "coordinates": [55.820121, 37.96734] }, "properties": { "name": "МЕГА ФАРМ", "address": "Свердлова, д. 7", "phone": ["+7 (903) 279-05-13", "+7 (926) 549-06-52"], "id": "76552", "city": "БАЛАШИХА" }},
      { "type": "Feature", "geometry": { "type": "Point", "coordinates": [55.817729, 37.964753] }, "properties": { "name": "МЕГА ФАРМ", "address": "Спортивная, д. 17", "phone": ["+7 (903) 754-62-85"], "id": "124460", "city": "БАЛАШИХА" }},
      { "type": "Feature", "geometry": { "type": "Point", "coordinates": [55.795519, 37.974707] }, "properties": { "name": "Будь здоров", "address": "Фадеева, д. 11", "phone": ["+7 (906) 749-40-00"], "id": "112315", "city": "БАЛАШИХА" }},
      { "type": "Feature", "geometry": { "type": "Point", "coordinates": [55.750748, 37.955653] }, "properties": { "name": "Здоровье", "address": "Центральная, д. 37", "phone": [""], "id": "112219", "city": "БАЛАШИХА" }},
      { "type": "Feature", "geometry": { "type": "Point", "coordinates": [55.797515, 37.983636] }, "properties": { "name": "А-МЕГА", "address": "Энтузиастов шоссе, д. 78", "phone": ["+7 (903) 753-90-07"], "id": "85580", "city": "БАЛАШИХА" }},
      { "type": "Feature", "geometry": { "type": "Point", "coordinates": [55.7981, 37.986475] }, "properties": { "name": "Формула Здоровья ЦЕНТР", "address": "Энтузиастов шоссе, д. 80", "phone": ["+7 (495) 505-59-09"], "id": "11440", "city": "БАЛАШИХА" }},
      { "type": "Feature", "geometry": { "type": "Point", "coordinates": [55.269718, 37.894523] }, "properties": { "name": "Аптека на Лунной", "address": "Привокзальная площадь, д. 5", "phone": ["+7 (496) 796-40-80"], "id": "3286", "city": "БАРЫБИНО" }},
      { "type": "Feature", "geometry": { "type": "Point", "coordinates": [55.446473, 38.478715] }, "properties": { "name": "М.С п.Белоозерский", "address": "50 лет Октября, д. 14", "phone": ["+7 (965) 193-40-30", "+7 (967) 149-05-26"], "id": "112284", "city": "БЕЛООЗЕРСКИЙ" }},
      { "type": "Feature", "geometry": { "type": "Point", "coordinates": [55.447754, 38.48318] }, "properties": { "name": "МИЦАР МО", "address": "50 лет Октября, д. 2, 1", "phone": ["+7 (964) 729-46-50"], "id": "155469", "city": "БЕЛООЗЁРСКИЙ" }},
      { "type": "Feature", "geometry": { "type": "Point", "coordinates": [55.446539, 38.474233] }, "properties": { "name": "А-МЕГА", "address": "50 лет Октября, д. 21, а", "phone": ["+7 (903) 754-88-28"], "id": "85582", "city": "БЕЛООЗЕРСКИЙ" }},
      { "type": "Feature", "geometry": { "type": "Point", "coordinates": [55.462533, 38.443672] }, "properties": { "name": "ТД-Стимул", "address": "Молодежная, д. 28, б", "phone": ["+7 (496) 445-14-22"], "id": "10417", "city": "БЕЛООЗЕРСКИЙ" }},
      { "type": "Feature", "geometry": { "type": "Point", "coordinates": [55.948014, 37.64264] }, "properties": { "name": "Купена", "address": "Центральная, д. 34, в", "phone": ["+7 (903) 548-44-46", "+7 (985) 644-38-08"], "id": "33340", "city": "БЕЛЯНИНОВО" }},
      { "type": "Feature", "geometry": { "type": "Point", "coordinates": [55.916598, 38.109211] }, "properties": { "name": "Парацельс", "social": true,  "address": "Микрорайон Аничково, д. 2", "phone": ["+7 (496) 250-15-27"], "id": "112267", "city": "БИОКОМБИНАТА"}},
      { "type": "Feature", "geometry": { "type": "Point", "coordinates": [55.916598, 38.109211] }, "properties": { "name": "МИЦАР МО", "address": "стр. 2", "phone": ["+7 (495) 739-97-38"], "id": "155468", "city": "БИОКОМБИНАТА" }},
      { "type": "Feature", "geometry": { "type": "Point", "coordinates": [55.053939, 38.610552] }, "properties": { "name": "Узон", "address": "д. 29", "phone": ["+7 (985) 244-63-91"], "id": "3686", "city": "БИОРКИ" }},
      { "type": "Feature", "geometry": { "type": "Point", "coordinates": [55.9453729, 37.6543892] }, "properties": { "name": "Купена", "address": "Осташковское шоссе, стр. 20", "phone": ["+7 (916) 555-67-52", "+7 (926) 956-70-03"], "id": "33338", "city": "БОЛТИНО" }},
      { "type": "Feature", "geometry": { "type": "Point", "coordinates": [55.852607, 38.603887] }, "properties": { "name": "Реал+", "address": "Ленинская, д. 32", "phone": ["+7 (915) 112-14-81"], "id": "10400", "city": "БОЛЬШОЕ БУНЬКОВО" }},
      { "type": "Feature", "geometry": { "type": "Point", "coordinates": [55.417613, 38.259778] }, "properties": { "name": "Формула здоровья", "address": "Комсомольский переулок, д. 53", "phone": ["+7 (916) 910-40-87"], "id": "6908", "city": "БРОННИЦЫ" }},
      { "type": "Feature", "geometry": { "type": "Point", "coordinates": [55.428041, 38.252484] }, "properties": { "name": "Формула здоровья", "address": "Московская, д. 14", "phone": ["+7 (496) 464-41-15", "+7 (496) 464-44-60"], "id": "2931", "city": "БРОННИЦЫ" }},
      { "type": "Feature", "geometry": { "type": "Point", "coordinates": [55.422472, 38.266273] }, "properties": { "name": "Формула здоровья", "address": "пер.Комсомольский, д. 1, корп. А", "phone": ["+7 (496) 464-44-60"], "id": "2937", "city": "БРОННИЦЫ" }},
      { "type": "Feature", "geometry": { "type": "Point", "coordinates": [55.420398, 38.259365] }, "properties": { "name": "ТВОЙ ЦЕЛИТЕЛЬ", "address": "Пионерский переулок, д. 33, а", "phone": ["+7 (496) 464-45-15"], "id": "16471", "city": "БРОННИЦЫ" }},
      { "type": "Feature", "geometry": { "type": "Point", "coordinates": [55.423551, 38.264126] }, "properties": { "name": "Здоровье для Вас", "address": "Пионерский проезд, д. 5", "phone": ["+7 (496) 464-41-40", "+7 (496) 467-10-20"], "id": "10342", "city": "БРОННИЦЫ" }},
      { "type": "Feature", "geometry": { "type": "Point", "coordinates": [55.417889, 38.278849] }, "properties": { "name": "Формула здоровья", "address": "Советская, д. 108", "phone": ["+7 (496) 466-66-35"], "id": "2994", "city": "БРОННИЦЫ" }},
      { "type": "Feature", "geometry": { "type": "Point", "coordinates": [55.941186, 36.717918] }, "properties": { "name": "НАДЕЖДА", "address": "д. 32, стр. 1", "phone": ["+7 (910) 423-18-85"], "id": "16228", "city": "БРЫКОВО" }},
      { "type": "Feature", "geometry": { "type": "Point", "coordinates": [55.575063, 37.598384] }, "properties": { "name": "ФармТорг", "address": "д. 26", "phone": ["+7 (495) 122-07-37"], "id": "7459", "city": "БУЛАТНИКОВСКОЕ" }},
      { "type": "Feature", "geometry": { "type": "Point", "coordinates": [55.626604, 38.075435] }, "properties": { "name": "Фармакон", "social": true,  "address": "Леволинейная, д. 41", "phone": ["+7 (496) 462-18-73"], "id": "3128", "city": "БЫКОВО"}},
      { "type": "Feature", "geometry": { "type": "Point", "coordinates": [55.641434, 38.087178] }, "properties": { "name": "МИЦАР МО", "address": "Щорса, д. 2, а", "phone": ["+7 (963) 712-93-27"], "id": "155475", "city": "БЫКОВО" }},
      { "type": "Feature", "geometry": { "type": "Point", "coordinates": [55.132016, 37.602337] }, "properties": { "name": "Васькино", "address": "стр. 7", "phone": ["+7 (903) 557-19-47"], "id": "33363", "city": "ВАСЬКИНО" }},
      { "type": "Feature", "geometry": { "type": "Point", "coordinates": [55.772229, 39.09593] }, "properties": { "name": "Исток", "address": "Центральная, д. 23", "phone": ["+7 (496) 418-11-16"], "id": "112143", "city": "ВЕРЕЯ" }},
      { "type": "Feature", "geometry": { "type": "Point", "coordinates": [55.545706, 37.719271] }, "properties": { "name": "МЕГА ФАРМ", "social": true,  "address": "Березовая, д. 2", "phone": ["+7 (968) 778-17-89"], "id": "167404", "city": "ВИДНОЕ"}},
      { "type": "Feature", "geometry": { "type": "Point", "coordinates": [55.555759, 37.714186] }, "properties": { "name": "Омега", "address": "Заводская, д. 7", "phone": ["+7 (495) 541-17-33", "+7 (495) 546-60-62"], "id": "2229", "city": "ВИДНОЕ" }},
      { "type": "Feature", "geometry": { "type": "Point", "coordinates": [55.537205, 37.725083] }, "properties": { "name": "Альянс", "address": "Ольховая, д. 6, а, корп. VIII", "phone": ["+7 (498) 767-50-66"], "id": "2760", "city": "ВИДНОЕ" }},
      { "type": "Feature", "geometry": { "type": "Point", "coordinates": [55.552622, 37.708383] }, "properties": { "name": "А-МЕГА", "address": "Советский проезд, д. 11", "phone": ["+7 (903) 754-17-61"], "id": "85581", "city": "ВИДНОЕ" }},
      { "type": "Feature", "geometry": { "type": "Point", "coordinates": [55.423192, 38.55218] }, "properties": { "name": "Тетра", "address": "Коммунистическая, д. 25", "phone": ["+7 (496) 447-14-11"], "id": "2343", "city": "ВИНОГРАДОВО" }},
      { "type": "Feature", "geometry": { "type": "Point", "coordinates": [55.68120465, 37.18911181] }, "properties": { "name": "СБ", "address": "Маршала Жукова, д. 10", "phone": ["+7 (925) 571-99-62"], "id": "2159", "city": "ВЛАСИХА" }},
      { "type": "Feature", "geometry": { "type": "Point", "coordinates": [55.660287, 37.210806] }, "properties": { "name": "Магнолия+", "address": "28й км Можайского шоссе, д. 1, а", "phone": ["+7 (910) 001-61-61"], "id": "76146", "city": "ВНИИССОК" }},
      { "type": "Feature", "geometry": { "type": "Point", "coordinates": [55.659937, 37.205111] }, "properties": { "name": "АЛВИТА", "address": "Березовая, д. 1", "phone": ["+7 (916) 388-63-31"], "id": "7020", "city": "ВНИИССОК" }},
      { "type": "Feature", "geometry": { "type": "Point", "coordinates": [55.657834, 37.202641] }, "properties": { "name": "Долголетие", "address": "Березовая, д. 6", "phone": ["+7 (901) 530-39-88"], "id": "1638", "city": "ВНИИССОК" }},
      { "type": "Feature", "geometry": { "type": "Point", "coordinates": [55.657733, 37.198086] }, "properties": { "name": "Микстурка", "address": "Дружбы, д. 13, корп. 7", "phone": ["+7 (495) 649-86-18"], "id": "10789", "city": "ВНИИССОК" }},
      { "type": "Feature", "geometry": { "type": "Point", "coordinates": [55.657652, 37.196496] }, "properties": { "name": "Фарма.Л", "address": "Дружбы, д. 21", "phone": ["+7 (926) 754-43-45", "+7 (926) 825-20-03"], "id": "1000", "city": "ВНИИССОК" }},
      { "type": "Feature", "geometry": { "type": "Point", "coordinates": [55.658083, 37.201509] }, "properties": { "name": "ИП Кочнева Е.С.", "address": "Дружбы, д. 3", "phone": ["+7 (917) 512-34-21"], "id": "16469", "city": "ВНИИССОК" }},
      { "type": "Feature", "geometry": { "type": "Point", "coordinates": [55.636839, 37.333238] }, "properties": { "name": "МЕГА ФАРМ", "address": "Анны Ахматовой, д. 10", "phone": ["+7 (495) 967-69-40", "+7 (903) 289-57-28"], "id": "76560", "city": "ВНУКОВСКОЕ" }},
      { "type": "Feature", "geometry": { "type": "Point", "coordinates": [55.995221, 35.93757] }, "properties": { "name": "Марта", "address": "Комарова, д. 11", "phone": ["+7 (496) 362-83-87", "+7 (496) 362-83-98"], "id": "10356", "city": "ВОЛОКОЛАМСК" }},
      { "type": "Feature", "geometry": { "type": "Point", "coordinates": [56.028641, 35.95082] }, "properties": { "name": "Утренняя звезда", "address": "Ново-Cолдатская, д. 15", "phone": ["+7 (496) 362-10-06"], "id": "10476", "city": "ВОЛОКОЛАМСК" }},
      { "type": "Feature", "geometry": { "type": "Point", "coordinates": [56.033329, 35.959974] }, "properties": { "name": "ФАРМСИ", "address": "Панфилова, д. 5", "phone": ["+7 (49636) 4-48-22", "+7 (926) 596-57-96"], "id": "6836", "city": "ВОЛОКОЛАМСК" }},
      { "type": "Feature", "geometry": { "type": "Point", "coordinates": [56.029557, 35.958025] }, "properties": { "name": "Утренняя звезда", "address": "Парковая, д. 15", "phone": ["+7 (496) 364-43-60"], "id": "31657", "city": "ВОЛОКОЛАМСК" }},
      { "type": "Feature", "geometry": { "type": "Point", "coordinates": [56.050033, 35.948206] }, "properties": { "name": "Континент", "address": "Первомайская, д. 1", "phone": ["+7 (985) 482-72-58"], "id": "6794", "city": "ВОЛОКОЛАМСК" }},
      { "type": "Feature", "geometry": { "type": "Point", "coordinates": [56.019062, 35.936851] }, "properties": { "name": "Марта", "address": "Пороховская, д. 3", "phone": ["+7 (496) 362-83-97"], "id": "31670", "city": "ВОЛОКОЛАМСК" }},
      { "type": "Feature", "geometry": { "type": "Point", "coordinates": [56.029345, 35.942178] }, "properties": { "name": "Аптека №17", "address": "Рижское шоссе, д. 41, а", "phone": ["+7 (496) 364-45-28"], "id": "31678", "city": "ВОЛОКОЛАМСК" }},
      { "type": "Feature", "geometry": { "type": "Point", "coordinates": [56.035096, 35.959144] }, "properties": { "name": "Волоколамское Райпо", "address": "Советская, д. 1", "phone": ["+7 (496) 364-40-05"], "id": "6780", "city": "ВОЛОКОЛАМСК" }},
      { "type": "Feature", "geometry": { "type": "Point", "coordinates": [56.034777, 35.959193] }, "properties": { "name": "ООО &quot;Кривобородов и К&quot;", "address": "Советская, д. 1\/1", "phone": ["+7 (926) 641-40-44"], "id": "23366", "city": "ВОЛОКОЛАМСК" }},
      { "type": "Feature", "geometry": { "type": "Point", "coordinates": [56.064786, 35.926341] }, "properties": { "name": "Утренняя звезда", "address": "Фабричная, д. 21", "phone": ["+7 (496) 362-10-06"], "id": "31658", "city": "ВОЛОКОЛАМСК" }},
      { "type": "Feature", "geometry": { "type": "Point", "coordinates": [56.029803, 35.956057] }, "properties": { "name": "Фарма +", "address": "Школьная, д. 5", "phone": ["+7 (926) 641-40-44"], "id": "11477", "city": "ВОЛОКОЛАМСК" }},
      { "type": "Feature", "geometry": { "type": "Point", "coordinates": [55.319396, 37.154604] }, "properties": { "name": "Градествите", "address": "Вороновское, д. 108", "phone": ["+7 (926) 532-93-77"], "id": "33333", "city": "ВОРОНОВО" }},
      { "type": "Feature", "geometry": { "type": "Point", "coordinates": [55.310993, 37.1789569] }, "properties": { "name": "Градествите", "address": "д. 9 а", "phone": ["+7 (925) 003-66-28"], "id": "33335", "city": "ВОРОНОВО" }},
      { "type": "Feature", "geometry": { "type": "Point", "coordinates": [55.31597, 38.655594] }, "properties": { "name": "Тетра", "address": "Зелинского, д. 5, г", "phone": ["+7 (496) 441-58-31"], "id": "3878", "city": "ВОСКРЕСЕНСК" }},
      { "type": "Feature", "geometry": { "type": "Point", "coordinates": [55.315089, 38.648937] }, "properties": { "name": "Тетра", "address": "Зелинского, д. 6, б", "phone": ["+7 (496) 441-69-25"], "id": "726", "city": "ВОСКРЕСЕНСК" }},
      { "type": "Feature", "geometry": { "type": "Point", "coordinates": [55.274447, 38.743224] }, "properties": { "name": "Колесников А.К.", "address": "Калинина, д. 50", "phone": ["+7 (496) 446-08-44"], "id": "2589", "city": "ВОСКРЕСЕНСК" }},
      { "type": "Feature", "geometry": { "type": "Point", "coordinates": [55.251906, 38.759529] }, "properties": { "name": "ФармВектор", "address": "Карла Маркса, д. 20", "phone": ["+7 (916) 675-59-33"], "id": "112197", "city": "ВОСКРЕСЕНСК" }},
      { "type": "Feature", "geometry": { "type": "Point", "coordinates": [55.251085, 38.759376] }, "properties": { "name": "Практика", "address": "Карла Маркса, д. 24", "phone": ["+7 (495) 92-82-67"], "id": "3958", "city": "ВОСКРЕСЕНСК" }},
      { "type": "Feature", "geometry": { "type": "Point", "coordinates": [55.251105, 38.759394] }, "properties": { "name": "Практика", "address": "Карла Маркса, д. 24", "phone": ["+7 (496) 443-09-81"], "id": "10383", "city": "ВОСКРЕСЕНСК" }},
      { "type": "Feature", "geometry": { "type": "Point", "coordinates": [55.341401, 38.725205] }, "properties": { "name": "ФармВектор", "address": "Комсомольская, д. 10", "phone": ["+7 (916) 675-59-33"], "id": "112138", "city": "ВОСКРЕСЕНСК" }},
      { "type": "Feature", "geometry": { "type": "Point", "coordinates": [55.341597, 38.724701] }, "properties": { "name": "Тетра", "address": "Комсомольская, д. 8, а", "phone": ["+7 (496) 446-35-37"], "id": "6901", "city": "ВОСКРЕСЕНСК" }},
      { "type": "Feature", "geometry": { "type": "Point", "coordinates": [55.321636, 38.672868] }, "properties": { "name": "Фарма Хелп", "address": "Ленина, д. 5", "phone": ["+7 (495) 662-67-03", "+7 (498) 479-52-72"], "id": "2916", "city": "ВОСКРЕСЕНСК" }},
      { "type": "Feature", "geometry": { "type": "Point", "coordinates": [55.250669, 38.75722] }, "properties": { "name": "МЕГА ФАРМ", "social": true,  "address": "Ленинская, д. 22", "phone": [""], "id": "167388", "city": "ВОСКРЕСЕНСК"}},
      { "type": "Feature", "geometry": { "type": "Point", "coordinates": [55.320191, 38.666742] }, "properties": { "name": "Экспертиза", "address": "Лермонтова, д. 4, а", "phone": ["+7 (496) 442-79-42"], "id": "2112", "city": "ВОСКРЕСЕНСК" }},
      { "type": "Feature", "geometry": { "type": "Point", "coordinates": [55.325001, 38.659798] }, "properties": { "name": "ФармВектор", "address": "Менделеева, д. 20", "phone": ["+7 (49644) 2-22-48"], "id": "112123", "city": "ВОСКРЕСЕНСК" }},
      { "type": "Feature", "geometry": { "type": "Point", "coordinates": [55.322061, 38.665879] }, "properties": { "name": "Сайдана", "address": "Менделеева, д. 5", "phone": ["+7 (496) 442-45-60"], "id": "112163", "city": "ВОСКРЕСЕНСК" }},
      { "type": "Feature", "geometry": { "type": "Point", "coordinates": [55.323715, 38.663104] }, "properties": { "name": "Тетра", "address": "Менделеева, д. 8", "phone": ["+7 (496) 441-12-65"], "id": "1611", "city": "ВОСКРЕСЕНСК" }},
      { "type": "Feature", "geometry": { "type": "Point", "coordinates": [55.3234183, 38.657717] }, "properties": { "name": "МЕГА ФАРМ", "social": true,  "address": "Мичуринский проспект, д. 44, а", "phone": [""], "id": "167392", "city": "ВОСКРЕСЕНСК"}},
      { "type": "Feature", "geometry": { "type": "Point", "coordinates": [55.26621, 38.742883] }, "properties": { "name": "ФармВектор", "address": "Московская, д. 11", "phone": ["+7 (496) 442-22-48", "+7 (496) 443-80-38", "+7 (916) 675-59-33"], "id": "112230", "city": "ВОСКРЕСЕНСК" }},
      { "type": "Feature", "geometry": { "type": "Point", "coordinates": [55.322453, 38.676959] }, "properties": { "name": "Сайдана", "address": "Октябрьская, д. 7", "phone": ["+7 (926) 575-26-44"], "id": "10475", "city": "ВОСКРЕСЕНСК" }},
      { "type": "Feature", "geometry": { "type": "Point", "coordinates": [55.324038, 38.679767] }, "properties": { "name": "Сайдана", "address": "Победы, д. 12", "phone": ["+7 (496) 442-66-33", "+7 (496) 442-79-25"], "id": "3064", "city": "ВОСКРЕСЕНСК" }},
      { "type": "Feature", "geometry": { "type": "Point", "coordinates": [55.323516, 38.674162] }, "properties": { "name": "Тетра", "address": "Победы, д. 18", "phone": ["+7 (496) 441-11-86"], "id": "1816", "city": "ВОСКРЕСЕНСК" }},
      { "type": "Feature", "geometry": { "type": "Point", "coordinates": [55.323167, 38.676605] }, "properties": { "name": "Сайдана", "address": "Победы, д. 7", "phone": ["+7 (496) 442-79-25", "+7 (926) 575-26-44"], "id": "10416", "city": "ВОСКРЕСЕНСК" }},
      { "type": "Feature", "geometry": { "type": "Point", "coordinates": [55.271631, 38.75298] }, "properties": { "name": "МЕГА ФАРМ", "address": "Рабочая, д. 122", "phone": ["+7 (495) 967-69-40", "+7 (903) 289-58-24"], "id": "76550", "city": "ВОСКРЕСЕНСК" }},
      { "type": "Feature", "geometry": { "type": "Point", "coordinates": [55.316421, 38.686621] }, "properties": { "name": "Практика", "address": "Советская, д. 2, п", "phone": ["+7 (496) 617-44-13"], "id": "10381", "city": "ВОСКРЕСЕНСК" }},
      { "type": "Feature", "geometry": { "type": "Point", "coordinates": [55.320314, 38.681016] }, "properties": { "name": "Тетра", "address": "Советская, д. 9", "phone": ["+7 (496) 442-60-76"], "id": "1088", "city": "ВОСКРЕСЕНСК" }},
      { "type": "Feature", "geometry": { "type": "Point", "coordinates": [55.275395, 38.749953] }, "properties": { "name": "Ассорти плюс", "address": "Спартака, д. 22, а", "phone": ["+7 (496) 441-16-80"], "id": "112117", "city": "ВОСКРЕСЕНСК" }},
      { "type": "Feature", "geometry": { "type": "Point", "coordinates": [55.530704, 37.44462] }, "properties": { "name": "Фарма Позитив", "address": "д. 26", "phone": ["+7 (495) 659-65-63", "+7 (916) 821-69-02"], "id": "1146", "city": "ВОСКРЕСЕНСКОЕ" }},
      { "type": "Feature", "geometry": { "type": "Point", "coordinates": [55.529634, 37.445383] }, "properties": { "name": "ФармСервисБюро", "address": "д. 29", "phone": ["+7 (495) 678-02-84", "+7 (926) 777-84-99"], "id": "1427", "city": "ВОСКРЕСЕНСКОЕ" }},
      { "type": "Feature", "geometry": { "type": "Point", "coordinates": [55.820374, 37.871778] }, "properties": { "name": "ИП Сысоева Л.Н.", "address": "Главная, д. 29, а", "phone": ["+7 (495) 509-34-20", "+7 (499) 463-87-44", "+7 (915) 261-10-09"], "id": "940", "city": "ВОСТОЧНЫЙ" }},
      { "type": "Feature", "geometry": { "type": "Point", "coordinates": [56.319759, 36.551012] }, "properties": { "name": "ИП  Фуртас И.Б.", "address": "Владыкина, д. 13", "phone": ["+7 (906) 724-91-12"], "id": "10351", "city": "ВЫСОКОВСК" }},
      { "type": "Feature", "geometry": { "type": "Point", "coordinates": [55.878473, 37.364069] }, "properties": { "name": "Грааль", "address": "квартал XV, д. 6", "phone": ["+7 (917) 517-71-10"], "id": "16379", "city": "ГАВРИЛКОВО" }},
      { "type": "Feature", "geometry": { "type": "Point", "coordinates": [55.606436398393, 38.398490047437] }, "properties": { "name": "ЭксФарм", "address": "Центральная, д. 102", "phone": ["+7 (496) 473-39-78", "+7 (926) 895-91-90"], "id": "1027", "city": "ГЖЕЛЬ" }},
      { "type": "Feature", "geometry": { "type": "Point", "coordinates": [55.612599, 38.43565] }, "properties": { "name": "ПФК", "address": "д. 7", "phone": [""], "id": "2064", "city": "ГЖЕЛЬСКИЙ КИРПИЧНЫЙ ЗАВОД" }},
      { "type": "Feature", "geometry": { "type": "Point", "coordinates": [55.984928, 37.099347] }, "properties": { "name": "ИП Орионова Е.В.", "social": true,  "address": "Родниковая, д. 4, корп. 4", "phone": ["+7 (499) 391-17-64", "+7 (916) 333-03-60"], "id": "99761", "city": "ГОЛУБОЕ"}},
      { "type": "Feature", "geometry": { "type": "Point", "coordinates": [56.374494, 37.41186] }, "properties": { "name": "Мед-Профи", "address": "д. 41", "phone": ["+7 (496) 222-61-99"], "id": "5869", "city": "ГОРШКОВО" }},
      { "type": "Feature", "geometry": { "type": "Point", "coordinates": [55.744855, 37.122897] }, "properties": { "name": "Ла Сантэ", "social": true,  "address": "", "phone": ["+7 (495) 561-17-99"], "id": "112194", "city": "ГРИБАНОВО"}},
      { "type": "Feature", "geometry": { "type": "Point", "coordinates": [55.693241, 39.138717] }, "properties": { "name": "Исток", "address": "Полевая, д. 2", "phone": ["+7 (496) 418-11-16"], "id": "112247", "city": "ГУБИНО" }},
      { "type": "Feature", "geometry": { "type": "Point", "coordinates": [55.610148, 38.853753] }, "properties": { "name": "Исток", "address": "Советская, д. 22", "phone": ["+7 (903) 575-65-74"], "id": "1527", "city": "ДАВЫДОВО" }},
      { "type": "Feature", "geometry": { "type": "Point", "coordinates": [56.237162, 37.522207] }, "properties": { "name": "Оноприенко И.Н.", "address": "Московское шоссе, д. 5, корп. А", "phone": ["+7 (909) 675-59-42"], "id": "31668", "city": "ДЕДЕНЕВО" }},
      { "type": "Feature", "geometry": { "type": "Point", "coordinates": [55.874521, 37.121648] }, "properties": { "name": "ГАЛА", "social": true,  "address": "Волоколамская 1-я, д. 60, б", "phone": ["+7 (926) 700-49-25"], "id": "112170", "city": "ДЕДОВСК"}},
      { "type": "Feature", "geometry": { "type": "Point", "coordinates": [55.860686, 37.125251] }, "properties": { "name": "Тоша", "address": "Гагарина, д. 3", "phone": ["+7 (495) 994-38-38", "+7 (498) 729-03-73"], "id": "1021", "city": "ДЕДОВСК" }},
      { "type": "Feature", "geometry": { "type": "Point", "coordinates": [55.865546, 37.113025] }, "properties": { "name": "Тоша", "address": "Гвардейская, д. 9, а", "phone": ["+7 (495) 994-38-38", "+7 (498) 729-03-73"], "id": "3067", "city": "ДЕДОВСК" }},
      { "type": "Feature", "geometry": { "type": "Point", "coordinates": [55.865945, 37.12605] }, "properties": { "name": "ВиоЛек", "address": "Железнодорожная, д. 13", "phone": ["+7 (926) 641-40-44"], "id": "11468", "city": "ДЕДОВСК" }},
      { "type": "Feature", "geometry": { "type": "Point", "coordinates": [55.864833, 37.12817] }, "properties": { "name": "Союз", "address": "Железнодорожная, д. 14", "phone": ["+7 (495) 994-55-52"], "id": "6818", "city": "ДЕДОВСК" }},
      { "type": "Feature", "geometry": { "type": "Point", "coordinates": [55.872031, 37.122789] }, "properties": { "name": "Фармек", "address": "Керамическая, д. 12", "phone": ["+7 (926) 190-85-73"], "id": "3173", "city": "ДЕДОВСК" }},
      { "type": "Feature", "geometry": { "type": "Point", "coordinates": [55.860959, 37.126975] }, "properties": { "name": "Кривобородов и К", "address": "Ногина, д. 2", "phone": ["+7 (926) 641-40-44"], "id": "1230", "city": "ДЕДОВСК" }},
      { "type": "Feature", "geometry": { "type": "Point", "coordinates": [55.866672, 37.144735] }, "properties": { "name": "АлексанДрин", "address": "Пригородная, д. 18", "phone": ["+7 (495) 643-18-77"], "id": "16212", "city": "ДЕДОВСК" }},
      { "type": "Feature", "geometry": { "type": "Point", "coordinates": [55.869698, 37.102775] }, "properties": { "name": "Компания ЛИГЕР", "address": "Энергетиков, д. 14, а", "phone": ["+7 (903) 796-95-24"], "id": "31702", "city": "ДЕДОВСК" }},
      { "type": "Feature", "geometry": { "type": "Point", "coordinates": [55.514325, 37.351967] }, "properties": { "name": "МЕГА ФАРМ", "address": "6-я Нововатутинская, д. 2", "phone": ["+7 (495) 967-69-40", "+7 (903) 289-58-10"], "id": "76569", "city": "ДЕСЕНОВСКОЕ" }},
      { "type": "Feature", "geometry": { "type": "Point", "coordinates": [55.637149, 37.842007] }, "properties": { "name": "МЕГА ФАРМ", "address": "Ленина, д. 5", "phone": ["+7 (495) 967-69-40", "+7 (966) 119-61-57"], "id": "76540", "city": "ДЗЕРЖИНСКИЙ" }},
      { "type": "Feature", "geometry": { "type": "Point", "coordinates": [55.628657, 37.852976] }, "properties": { "name": "МЕГА ФАРМ", "address": "Лермонтова, д. 23", "phone": ["+7 (495) 967-69-40", "+7 (903) 278-17-43"], "id": "76533", "city": "ДЗЕРЖИНСКИЙ" }},
      { "type": "Feature", "geometry": { "type": "Point", "coordinates": [55.630594, 37.858581] }, "properties": { "name": "Би фарма", "social": true,  "address": "Лесная, д. 11, корп. 1", "phone": ["+7 (498) 742-15-63"], "id": "112153", "city": "ДЗЕРЖИНСКИЙ"}},
      { "type": "Feature", "geometry": { "type": "Point", "coordinates": [55.629908, 37.8654] }, "properties": { "name": "БИОТОН ФАРМА", "social": true,  "address": "Лесная, д. 19, а", "phone": ["+7 (495) 550-00-09", "+7 (495) 551-60-83"], "id": "112148", "city": "ДЗЕРЖИНСКИЙ"}},
      { "type": "Feature", "geometry": { "type": "Point", "coordinates": [55.632057, 37.847829] }, "properties": { "name": "Сано Терра", "address": "Поклонная, д. 3, а", "phone": ["+7 (498) 742-01-21"], "id": "2883", "city": "ДЗЕРЖИНСКИЙ" }},
      { "type": "Feature", "geometry": { "type": "Point", "coordinates": [55.627646, 37.862202] }, "properties": { "name": "Мицар-Н", "address": "Томилинская, д. 7", "phone": ["+7 (915) 111-00-55"], "id": "155442", "city": "ДЗЕРЖИНСКИЙ" }},
      { "type": "Feature", "geometry": { "type": "Point", "coordinates": [56.335156, 37.538206] }, "properties": { "name": "Добрый доктор", "address": "2-я Комсомольская, д. 3, а", "phone": ["+7 (901) 593-20-03"], "id": "31671", "city": "ДМИТРОВ" }},
      { "type": "Feature", "geometry": { "type": "Point", "coordinates": [56.337027, 37.549327] }, "properties": { "name": "3&quot;А&quot;", "address": "Космонавтов, д. 39", "phone": ["+7 (926) 703-54-94"], "id": "82190", "city": "ДМИТРОВ" }},
      { "type": "Feature", "geometry": { "type": "Point", "coordinates": [56.341004, 37.548285] }, "properties": { "name": "Медфарм", "address": "Космонавтов, д. 52", "phone": ["+7 (925) 378-05-88"], "id": "31688", "city": "ДМИТРОВ" }},
      { "type": "Feature", "geometry": { "type": "Point", "coordinates": [56.366346, 37.534146] }, "properties": { "name": "Медфарм", "address": "микрорайон ДЗФС, д. 11, а", "phone": ["+7 (929) 664-67-10"], "id": "3178", "city": "ДМИТРОВ" }},
      { "type": "Feature", "geometry": { "type": "Point", "coordinates": [56.334403, 37.511248] }, "properties": { "name": "МЕГА ФАРМ", "address": "Московская, д. 29", "phone": ["+7 (496) 221-96-91"], "id": "109413", "city": "ДМИТРОВ" }},
      { "type": "Feature", "geometry": { "type": "Point", "coordinates": [56.350846, 37.533751] }, "properties": { "name": "МЕГА ФАРМ", "address": "Оборонная, д. 21", "phone": ["+7 (903) 754-60-92"], "id": "109412", "city": "ДМИТРОВ" }},
      { "type": "Feature", "geometry": { "type": "Point", "coordinates": [56.362671, 37.53093] }, "properties": { "name": "Медфарм", "address": "Профессиональная, д. 80", "phone": ["+7 (496) 224-66-90", "+7 (925) 142-79-84"], "id": "6796", "city": "ДМИТРОВ" }},
      { "type": "Feature", "geometry": { "type": "Point", "coordinates": [56.364356, 37.531235] }, "properties": { "name": "Добрый доктор", "address": "Профессиональная, д. 86", "phone": ["+7 (968) 043-33-05"], "id": "82195", "city": "ДМИТРОВ" }},
      { "type": "Feature", "geometry": { "type": "Point", "coordinates": [55.960296, 37.504151] }, "properties": { "name": "ИСТОЧНИК ЗДОРОВЬЯ", "address": "Корабельная, д. 5", "phone": ["+7 (495) 122-22-82"], "id": "26949", "city": "ДОЛГОПРУДНЫЙ" }},
      { "type": "Feature", "geometry": { "type": "Point", "coordinates": [55.960871, 37.520743] }, "properties": { "name": "Изабелла", "address": "Набережная, д. 19", "phone": ["+7 (495) 664-61-60", "+7 (495) 664-67-67"], "id": "31706", "city": "ДОЛГОПРУДНЫЙ" }},
      { "type": "Feature", "geometry": { "type": "Point", "coordinates": [55.952122, 37.495581] }, "properties": { "name": "Мега Фарм", "address": "Парковая, д. 36", "phone": ["+7 (985) 684-77-66"], "id": "136245", "city": "ДОЛГОПРУДНЫЙ" }},
      { "type": "Feature", "geometry": { "type": "Point", "coordinates": [55.933065, 37.494288] }, "properties": { "name": "Пульсар", "address": "проспект Лихачевский, д. 68, корп. 1", "phone": ["+7 (495) 407-65-56", "+7 (903) 187-31-96", "+7 (926) 117-02-25"], "id": "16496", "city": "ДОЛГОПРУДНЫЙ" }},
      { "type": "Feature", "geometry": { "type": "Point", "coordinates": [55.938854, 37.498043] }, "properties": { "name": "О Вита", "address": "Спортивная, д. 13", "phone": ["+7 (926) 641-40-44"], "id": "1566", "city": "ДОЛГОПРУДНЫЙ" }},
      { "type": "Feature", "geometry": { "type": "Point", "coordinates": [55.964428, 37.530094] }, "properties": { "name": "ФАРМАПТЕКА", "address": "Старое Дмитровское шоссе, д. 11", "phone": ["+7 (925) 542-42-47"], "id": "67839", "city": "ДОЛГОПРУДНЫЙ" }},
      { "type": "Feature", "geometry": { "type": "Point", "coordinates": [55.194931, 37.787531] }, "properties": { "name": "Евалайн", "address": "деревня Ступино, д. 1, г", "phone": ["+7 (925) 789-41-04", "+7 (926) 038-17-93"], "id": "83759", "city": "ДОМОДЕДОВО" }},
      { "type": "Feature", "geometry": { "type": "Point", "coordinates": [55.432097, 37.765399] }, "properties": { "name": "Нова", "address": "Зеленая, д. 45", "phone": ["+7 (496) 794-45-00"], "id": "1298", "city": "ДОМОДЕДОВО" }},
      { "type": "Feature", "geometry": { "type": "Point", "coordinates": [55.441811, 37.766684] }, "properties": { "name": "Домодедовское Райпо", "address": "Каширское шоссе, д. 25", "phone": ["+7 (496) 793-01-66"], "id": "1770", "city": "ДОМОДЕДОВО" }},
      { "type": "Feature", "geometry": { "type": "Point", "coordinates": [55.435406, 37.767357] }, "properties": { "name": "Фарм-ЭС", "address": "Каширское шоссе, д. 49", "phone": ["+7 (967) 044-00-90"], "id": "10452", "city": "ДОМОДЕДОВО" }},
      { "type": "Feature", "geometry": { "type": "Point", "coordinates": [55.440182, 37.748125] }, "properties": { "name": "Грайнау-Д", "address": "Кирова, д. 7, корп. 1", "phone": ["+7 (496) 797-82-16"], "id": "2520", "city": "ДОМОДЕДОВО" }},
      { "type": "Feature", "geometry": { "type": "Point", "coordinates": [55.436699, 37.773807] }, "properties": { "name": "Нова", "address": "Корнеева, д. 1", "phone": ["+7 (496) 793-33-09", "+7 (496) 794-45-00"], "id": "2116", "city": "ДОМОДЕДОВО" }},
      { "type": "Feature", "geometry": { "type": "Point", "coordinates": [55.427101, 37.778568] }, "properties": { "name": "Виа-Плюс", "address": "Корнеева, д. 27", "phone": ["+7 (496) 792-31-74", "+7 (926) 844-28-34"], "id": "1172", "city": "ДОМОДЕДОВО" }},
      { "type": "Feature", "geometry": { "type": "Point", "coordinates": [55.399254, 37.77149] }, "properties": { "name": "МЕГА ФАРМ", "address": "Курыжова, д. 17", "phone": ["+7 (966) 119-45-37"], "id": "45697", "city": "ДОМОДЕДОВО" }},
      { "type": "Feature", "geometry": { "type": "Point", "coordinates": [55.402919, 37.76689] }, "properties": { "name": "ЗДОРОВЬЕ", "address": "Курыжова, д. 7", "phone": ["+7 (495) 122-22-82"], "id": "164535", "city": "ДОМОДЕДОВО" }},
      { "type": "Feature", "geometry": { "type": "Point", "coordinates": [55.425813, 37.756928] }, "properties": { "name": "Аптека на Лунной", "hours24": true,  "delivery": true, "address": "Лунная, д. 13", "phone": ["+7 (496) 795-55-50"], "id": "1052", "city": "ДОМОДЕДОВО"}},
      { "type": "Feature", "geometry": { "type": "Point", "coordinates": [55.430237, 37.752553] }, "properties": { "name": "ООО «Мега Фарм»", "address": "Племхозкий проезд, д. 3", "phone": ["+7 (968) 778-17-80"], "id": "156398", "city": "ДОМОДЕДОВО" }},
      { "type": "Feature", "geometry": { "type": "Point", "coordinates": [55.438501, 37.772999] }, "properties": { "name": "Фарм-ЭС", "address": "Привокзальная, д. 7", "phone": ["+7 (901) 510-71-73", "+7 (916) 918-56-63"], "id": "1625", "city": "ДОМОДЕДОВО" }},
      { "type": "Feature", "geometry": { "type": "Point", "coordinates": [55.415533, 37.832521] }, "properties": { "name": "Народник", "address": "проспект Туполева, д. 8", "phone": ["+7 (496) 792-73-50"], "id": "10363", "city": "ДОМОДЕДОВО" }},
      { "type": "Feature", "geometry": { "type": "Point", "coordinates": [55.452605, 37.743786] }, "properties": { "name": "Народник", "address": "Северная, д. 4", "phone": ["+7 (496) 795-59-62"], "id": "863", "city": "ДОМОДЕДОВО" }},
      { "type": "Feature", "geometry": { "type": "Point", "coordinates": [55.555708, 36.370432] }, "properties": { "name": "Знахарь", "address": "Виксне, д. 5, а", "phone": ["+7 (985) 929-14-75"], "id": "1588", "city": "ДОРОХОВО" }},
      { "type": "Feature", "geometry": { "type": "Point", "coordinates": [55.54617, 36.367261] }, "properties": { "name": "Знахарь", "address": "Невкипелого, д. 12", "phone": ["+7 (985) 929-14-75"], "id": "994", "city": "ДОРОХОВО" }},
      { "type": "Feature", "geometry": { "type": "Point", "coordinates": [55.547717, 36.373399] }, "properties": { "name": "Сити-Фарм", "social": true,  "address": "Советская 1-я, д. 2, а", "phone": ["+7 (496) 274-13-45"], "id": "112321", "city": "ДОРОХОВО"}},
      { "type": "Feature", "geometry": { "type": "Point", "coordinates": [55.747556, 38.849738] }, "properties": { "name": "Исток", "address": "Революции, д. 2, а", "phone": ["+7 (496) 418-11-16"], "id": "1091", "city": "ДРЕЗНА" }},
      { "type": "Feature", "geometry": { "type": "Point", "coordinates": [55.736686, 38.846135] }, "properties": { "name": "Фармсервис", "address": "Южная, д. 6", "phone": ["+7 (496) 418-39-44", "+7 (916) 691-98-98"], "id": "3059", "city": "ДРЕЗНА" }},
      { "type": "Feature", "geometry": { "type": "Point", "coordinates": [55.5296019, 37.588867] }, "properties": { "name": "НАКО", "address": "Новое шоссе, д. 7, стр. 1", "phone": ["+7 (977) 424-77-18"], "id": "31365", "city": "ДРОЖЖИНО" }},
      { "type": "Feature", "geometry": { "type": "Point", "coordinates": [56.751144, 37.198059] }, "properties": { "name": "Кор", "address": "Блохинцева, д. 13", "phone": ["+7 (496) 212-88-58"], "id": "1414", "city": "ДУБНА" }},
      { "type": "Feature", "geometry": { "type": "Point", "coordinates": [56.729936, 37.145103] }, "properties": { "name": "Мега Фарм", "address": "Боголюбова, д. 39", "phone": ["+7 (903) 289-56-94"], "id": "136247", "city": "ДУБНА" }},
      { "type": "Feature", "geometry": { "type": "Point", "coordinates": [56.732998, 37.164058] }, "properties": { "name": "МЕГА ФАРМ", "address": "Вернова, д. 1", "phone": ["+7 (495) 967-69-40", "+7 (903) 289-48-08"], "id": "76586", "city": "ДУБНА" }},
      { "type": "Feature", "geometry": { "type": "Point", "coordinates": [56.7554343, 37.1286147] }, "properties": { "name": "МЕГА ФАРМ", "social": true,  "address": "Октябрьская, д. 13", "phone": ["+7 (903) 754-31-96"], "id": "167386", "city": "ДУБНА"}},
      { "type": "Feature", "geometry": { "type": "Point", "coordinates": [56.739998, 37.167364] }, "properties": { "name": "КОР", "address": "Понтекорво, д. 10", "phone": ["+7 (496) 212-88-58"], "id": "6491", "city": "ДУБНА" }},
      { "type": "Feature", "geometry": { "type": "Point", "coordinates": [56.74029, 37.173652] }, "properties": { "name": "Шелла", "social": true,  "address": "Проспект Боголюбова, д. 7", "phone": ["+7 (496) 212-00-41", "+7 (916) 175-54-83"], "id": "155431", "city": "ДУБНА"}},
      { "type": "Feature", "geometry": { "type": "Point", "coordinates": [56.761244, 37.132032] }, "properties": { "name": "Мега Фарм", "address": "Тверская, д. 22", "phone": ["+7 (903) 754-75-93"], "id": "136246", "city": "ДУБНА" }},
      { "type": "Feature", "geometry": { "type": "Point", "coordinates": [56.763218, 37.142822] }, "properties": { "name": "Мега Фарм", "address": "Тверская, д. 4, а", "phone": ["+7 (903) 289-53-96"], "id": "136248", "city": "ДУБНА" }},
      { "type": "Feature", "geometry": { "type": "Point", "coordinates": [55.53967, 38.307874] }, "properties": { "name": "Рубин Плюс", "address": "Новая, д. 5", "phone": ["+7 (496) 464-57-42", "+7 (903) 126-88-42"], "id": "8035", "city": "ДУБОВАЯ РОЩА" }},
      { "type": "Feature", "geometry": { "type": "Point", "coordinates": [55.370191, 39.064031] }, "properties": { "name": "120 аптека", "address": "1-й микрорайон, д. 73", "phone": ["+7 (496) 403-85-30", "+7 (496) 403-98-18"], "id": "2615", "city": "ЕГОРЬЕВСК" }},
      { "type": "Feature", "geometry": { "type": "Point", "coordinates": [55.369485, 39.061183] }, "properties": { "name": "А-МЕГА", "address": "2-й микрорайон, д. 11", "phone": ["+7 (903) 754-01-25"], "id": "85586", "city": "ЕГОРЬЕВСК" }},
      { "type": "Feature", "geometry": { "type": "Point", "coordinates": [55.367525, 39.056422] }, "properties": { "name": "Союз", "address": "2-й микрорайон, д. 32", "phone": ["+7 (929) 992-42-66"], "id": "2915", "city": "ЕГОРЬЕВСК" }},
      { "type": "Feature", "geometry": { "type": "Point", "coordinates": [55.36643, 39.056296] }, "properties": { "name": "МИЦАР МО", "address": "3-й мкрорайон, д. 3", "phone": ["+7 (964) 534-95-61"], "id": "155482", "city": "ЕГОРЬЕВСК" }},
      { "type": "Feature", "geometry": { "type": "Point", "coordinates": [55.381224, 39.053808] }, "properties": { "name": "120 аптека", "address": "6-й микрорайон, д. 4, а", "phone": ["+7 (496) 403-47-52"], "id": "2837", "city": "ЕГОРЬЕВСК" }},
      { "type": "Feature", "geometry": { "type": "Point", "coordinates": [55.38171, 39.056898] }, "properties": { "name": "МИЦАР МО", "address": "6-й мкрорайон, д. 29", "phone": ["+7 (496) 404-06-63"], "id": "155474", "city": "ЕГОРЬЕВСК" }},
      { "type": "Feature", "geometry": { "type": "Point", "coordinates": [55.384508, 39.034629] }, "properties": { "name": "Экспертиза", "address": "Лейтенанта Шмидта, д. 19", "phone": ["+7 (496) 442-79-42"], "id": "6909", "city": "ЕГОРЬЕВСК" }},
      { "type": "Feature", "geometry": { "type": "Point", "coordinates": [55.369607, 39.06571] }, "properties": { "name": "ПАНКРАТ", "address": "Микрорайон 1-й, д. 23", "phone": ["+7 (985) 425-61-91"], "id": "16477", "city": "ЕГОРЬЕВСК" }},
      { "type": "Feature", "geometry": { "type": "Point", "coordinates": [55.38796, 39.046999] }, "properties": { "name": "МЕГА ФАРМ", "address": "Парижской Коммуны, д. 16", "phone": ["+7 (495) 967-69-40", "+7 (903) 754-70-83"], "id": "76567", "city": "ЕГОРЬЕВСК" }},
      { "type": "Feature", "geometry": { "type": "Point", "coordinates": [55.390608, 39.011147] }, "properties": { "name": "Мега Фарм", "address": "Привокзальная площадь, д. 1, д", "phone": ["+7 (903) 754-93-42"], "id": "85587", "city": "ЕГОРЬЕВСК" }},
      { "type": "Feature", "geometry": { "type": "Point", "coordinates": [55.380155, 39.040683] }, "properties": { "name": "Паритет+", "address": "Советская, д. 125", "phone": ["+7 (496) 404-36-56", "+7 (916) 233-98-49"], "id": "10419", "city": "ЕГОРЬЕВСК" }},
      { "type": "Feature", "geometry": { "type": "Point", "coordinates": [55.376948, 39.044762] }, "properties": { "name": "Аптека на Кузнецкой", "address": "Советская, д. 164\/43", "phone": ["+7 (496) 403-44-63"], "id": "2784", "city": "ЕГОРЬЕВСК" }},
      { "type": "Feature", "geometry": { "type": "Point", "coordinates": [55.384579, 39.03303] }, "properties": { "name": "Аптека на Кузнецкой", "address": "Советская, д. 66", "phone": ["+7 (496) 403-44-63"], "id": "3003", "city": "ЕГОРЬЕВСК" }},
      { "type": "Feature", "geometry": { "type": "Point", "coordinates": [56.113492, 37.817034] }, "properties": { "name": "Зеленоградское М.О.", "address": "д. 1", "phone": ["+7 (496) 531-43-24", "+7 (925) 858-34-32"], "id": "2420", "city": "ЕЛЬДИГИНО" }},
      { "type": "Feature", "geometry": { "type": "Point", "coordinates": [56.147776, 37.491242] }, "properties": { "name": "Пенткрофт фарма", "address": "Центральная, д. 40", "phone": ["+7 (926) 528-03-05"], "id": "3263", "city": "ЕРМОЛИНО" }},
      { "type": "Feature", "geometry": { "type": "Point", "coordinates": [55.759304, 36.857885] }, "properties": { "name": "Аптечный дворик", "address": "стр. 3", "phone": ["+7 (498) 690-81-83", "+7 (985) 157-27-79"], "id": "6739", "city": "ЕРШОВО" }},
      { "type": "Feature", "geometry": { "type": "Point", "coordinates": [55.69452, 37.31705] }, "properties": { "name": "Ла Сантэ Плюс", "social": true,  "address": "Советская 1-я, д. 2", "phone": ["+7 (495) 662-79-74"], "id": "112213", "city": "ЖАВОРОНКИ"}},
      { "type": "Feature", "geometry": { "type": "Point", "coordinates": [55.74674, 38.008941] }, "properties": { "name": "Вита-Фарм", "address": "Адмирала Нахимова, д. 13", "phone": ["+7 (903) 265-47-59"], "id": "1967", "city": "ЖЕЛЕЗНОДОРОЖНЫЙ" }},
      { "type": "Feature", "geometry": { "type": "Point", "coordinates": [55.74579498, 37.98646817] }, "properties": { "name": "Вита-Фарм", "address": "Граничная, д. 24", "phone": ["+7 (915) 491-66-83", "+7 (926) 334-33-14"], "id": "2181", "city": "ЖЕЛЕЗНОДОРОЖНЫЙ" }},
      { "type": "Feature", "geometry": { "type": "Point", "coordinates": [55.746715, 37.973476] }, "properties": { "name": "У Палыча", "address": "Керамическая, д. 18", "phone": ["+7 (495) 527-33-23"], "id": "1056", "city": "ЖЕЛЕЗНОДОРОЖНЫЙ" }},
      { "type": "Feature", "geometry": { "type": "Point", "coordinates": [55.745732, 37.971913] }, "properties": { "name": "Стрельцы", "address": "Керамическая, д. 5, а", "phone": ["+7 (495) 527-70-19"], "id": "6902", "city": "ЖЕЛЕЗНОДОРОЖНЫЙ" }},
      { "type": "Feature", "geometry": { "type": "Point", "coordinates": [55.746091, 38.031291] }, "properties": { "name": "НАБА Фарм", "address": "Московская, д. 10", "phone": ["+7 (495) 522-25-57"], "id": "6892", "city": "ЖЕЛЕЗНОДОРОЖНЫЙ" }},
      { "type": "Feature", "geometry": { "type": "Point", "coordinates": [55.749527, 37.997236] }, "properties": { "name": "НАБА Фарм", "address": "Некрасова, д. 4", "phone": ["+7 (495) 525-02-59"], "id": "964", "city": "ЖЕЛЕЗНОДОРОЖНЫЙ" }},
      { "type": "Feature", "geometry": { "type": "Point", "coordinates": [55.728748, 37.969308] }, "properties": { "name": "530 аптека", "address": "Павлино, д. 15", "phone": ["+7 (495) 527-72-68"], "id": "1978", "city": "ЖЕЛЕЗНОДОРОЖНЫЙ" }},
      { "type": "Feature", "geometry": { "type": "Point", "coordinates": [55.749035, 38.01072] }, "properties": { "name": "Вита-Фарм", "address": "Пролетарская, д. 3", "phone": ["+7 (495) 522-94-77", "+7 (905) 536-46-15"], "id": "2344", "city": "ЖЕЛЕЗНОДОРОЖНЫЙ" }},
      { "type": "Feature", "geometry": { "type": "Point", "coordinates": [55.744632, 38.008923] }, "properties": { "name": "Ангара", "address": "Пролетарская, д. 7", "phone": ["+7 (495) 514-23-08", "+7 (968) 679-82-06"], "id": "10305", "city": "ЖЕЛЕЗНОДОРОЖНЫЙ" }},
      { "type": "Feature", "geometry": { "type": "Point", "coordinates": [55.727922, 38.030546] }, "properties": { "name": "МЕГА ФАРМ", "address": "Саввинская, д. 10", "phone": ["+7 (495) 967-69-40", "+7 (903) 279-20-45"], "id": "76576", "city": "ЖЕЛЕЗНОДОРОЖНЫЙ" }},
      { "type": "Feature", "geometry": { "type": "Point", "coordinates": [55.750368, 38.011582] }, "properties": { "name": "Фармаком +", "address": "Советская, д. 2", "phone": ["+7 (925) 090-71-92"], "id": "11079", "city": "ЖЕЛЕЗНОДОРОЖНЫЙ" }},
      { "type": "Feature", "geometry": { "type": "Point", "coordinates": [55.750378, 38.0116] }, "properties": { "name": "Стрельцы", "address": "Советская, д. 2", "phone": ["+7 (495) 522-86-69"], "id": "2686", "city": "ЖЕЛЕЗНОДОРОЖНЫЙ" }},
      { "type": "Feature", "geometry": { "type": "Point", "coordinates": [55.75158967, 37.95236208] }, "properties": { "name": "МЕГА ФАРМ", "address": "Центральная, д. 68, стр. 1", "phone": ["+7 (966) 119-48-75"], "id": "45741", "city": "ЖЕЛЕЗНОДОРОЖНЫЙ" }},
      { "type": "Feature", "geometry": { "type": "Point", "coordinates": [55.742894, 38.017951] }, "properties": { "name": "МЕГА ФАРМ", "address": "Юбилейная, д. 1, а", "phone": ["+7 (495) 967-69-40", "+7 (903) 279-19-69"], "id": "76530", "city": "ЖЕЛЕЗНОДОРОЖНЫЙ" }},
      { "type": "Feature", "geometry": { "type": "Point", "coordinates": [55.599204, 38.111951] }, "properties": { "name": "Аптека-76", "address": "Гагарина, д. 4", "phone": ["+7 (495) 556-98-28", "+7 (498) 484-78-52"], "id": "3089", "city": "ЖУКОВСКИЙ" }},
      { "type": "Feature", "geometry": { "type": "Point", "coordinates": [55.608231, 38.091011] }, "properties": { "name": "Фарма Хелп", "address": "Гагарина, д. 67", "phone": ["+7 (498) 483-38-98"], "id": "1119", "city": "ЖУКОВСКИЙ" }},
      { "type": "Feature", "geometry": { "type": "Point", "coordinates": [55.587641, 38.133646] }, "properties": { "name": "Парацельс", "social": true,  "address": "Гарнаева, д. 9, а", "phone": ["+7 (498) 479-52-56", "+7 (498) 481-20-33", "+7 (903) 178-94-43"], "id": "112262", "city": "ЖУКОВСКИЙ"}},
      { "type": "Feature", "geometry": { "type": "Point", "coordinates": [55.599199, 38.089538] }, "properties": { "name": "Фарма Хелп", "address": "Дугина, д. 28, корп. 12", "phone": ["+7 (498) 479-52-72", "+7 (498) 485-39-03"], "id": "2807", "city": "ЖУКОВСКИЙ" }},
      { "type": "Feature", "geometry": { "type": "Point", "coordinates": [55.608862, 38.076171] }, "properties": { "name": "Мега Фарм", "address": "Лацкова, д. 2\/3", "phone": ["+7 (903) 754-31-64"], "id": "143818", "city": "ЖУКОВСКИЙ" }},
      { "type": "Feature", "geometry": { "type": "Point", "coordinates": [55.597043, 38.095139] }, "properties": { "name": "Парацельс", "social": true,  "address": "Мясищева, д. 28\/1", "phone": ["+7 (49847) 9-58-26"], "id": "112265", "city": "ЖУКОВСКИЙ"}},
      { "type": "Feature", "geometry": { "type": "Point", "coordinates": [55.597688, 38.123944] }, "properties": { "name": "468 аптека", "hours24": true,  "address": "Чкалова, д. 41", "phone": ["+7 (495) 556-93-49"], "id": "783", "city": "ЖУКОВСКИЙ"}},
      { "type": "Feature", "geometry": { "type": "Point", "coordinates": [56.045121, 37.859426] }, "properties": { "name": "Доктор плюс", "address": "Марата, д. 1", "phone": ["+7 (496) 531-65-71"], "id": "766", "city": "ЗАВЕТЫ ИЛЬИЧА" }},
      { "type": "Feature", "geometry": { "type": "Point", "coordinates": [56.0439648, 37.8577722] }, "properties": { "name": "ФАРМКООП", "address": "Энтузиастов, д. 23", "phone": ["+7 (977) 828-78-01"], "id": "31466", "city": "ЗАВЕТЫ ИЛЬИЧА" }},
      { "type": "Feature", "geometry": { "type": "Point", "coordinates": [55.312111, 38.264545] }, "properties": { "name": "ФЕРО", "social": true,  "address": "д. 80", "phone": ["+7 (499) 394-44-03"], "id": "112343", "city": "ЗАВОРОВО"}},
      { "type": "Feature", "geometry": { "type": "Point", "coordinates": [54.757311, 38.889003] }, "properties": { "name": "Пульсар-Фарм", "address": "1-й микрорайон, д. 12", "phone": ["+7 (906) 707-81-63"], "id": "1838", "city": "ЗАРАЙСК" }},
      { "type": "Feature", "geometry": { "type": "Point", "coordinates": [54.753539, 38.887027] }, "properties": { "name": "Пульсар-Фарм", "address": "1-й микрорайон, д. 23", "phone": ["+7 (496) 662-83-93"], "id": "6905", "city": "ЗАРАЙСК" }},
      { "type": "Feature", "geometry": { "type": "Point", "coordinates": [54.761503, 38.89256] }, "properties": { "name": "Пульсар-Фарм", "address": "2-й микрорайон, д. 10, а", "phone": ["+7 (496) 662-83-93"], "id": "1156", "city": "ЗАРАЙСК" }},
      { "type": "Feature", "geometry": { "type": "Point", "coordinates": [54.757716, 38.88284] }, "properties": { "name": "ГК-фарм", "address": "Димитра Благоева, д. 40", "phone": ["+7 (905) 730-10-63"], "id": "112344", "city": "ЗАРАЙСК" }},
      { "type": "Feature", "geometry": { "type": "Point", "coordinates": [54.763711, 38.888608] }, "properties": { "name": "Пульсар-Фарм", "address": "Октябрьская, д. 22, а", "phone": ["+7 (905) 585-87-27", "+7 (962) 914-97-70"], "id": "6906", "city": "ЗАРАЙСК" }},
      { "type": "Feature", "geometry": { "type": "Point", "coordinates": [54.760002, 38.887215] }, "properties": { "name": "ГК-фарм", "address": "Октябрьская, д. 23", "phone": ["+7 (903) 191-13-52", "+7 (916) 055-13-52", "+7 (926) 851-10-60"], "id": "6899", "city": "ЗАРАЙСК" }},
      { "type": "Feature", "geometry": { "type": "Point", "coordinates": [54.760953, 38.886901] }, "properties": { "name": "ГК-фарм", "address": "Первый микрорайон, д. 34", "phone": ["+7 (916) 055-13-52"], "id": "6898", "city": "ЗАРАЙСК" }},
      { "type": "Feature", "geometry": { "type": "Point", "coordinates": [55.1183333, 39.0727778] }, "properties": { "name": "А-клин", "address": "Макшеевский сельский округ", "phone": ["+7 (916) 929-83-75"], "id": "67835", "city": "ЗАРУДНЯ" }},
      { "type": "Feature", "geometry": { "type": "Point", "coordinates": [55.731257, 36.855594] }, "properties": { "name": "КАРДИО", "address": "Ленина, д. 13", "phone": ["+7 (926) 735-04-77"], "id": "187385", "city": "ЗВЕНИГОРОД" }},
      { "type": "Feature", "geometry": { "type": "Point", "coordinates": [55.701394, 36.866437] }, "properties": { "name": "Долголетие", "address": "Радужная, д. 15", "phone": ["+7 (926) 096-73-74"], "id": "6746", "city": "ЗВЕНИГОРОД" }},
      { "type": "Feature", "geometry": { "type": "Point", "coordinates": [55.739894, 36.856017] }, "properties": { "name": "Микстурка", "address": "Спортивная, д. 16", "phone": ["+7 (495) 649-62-40"], "id": "112229", "city": "ЗВЕНИГОРОД" }},
      { "type": "Feature", "geometry": { "type": "Point", "coordinates": [55.991893, 37.214382] }, "properties": { "name": "МЕГА ФАРМ", "address": "", "phone": ["+7 (495) 967-69-40", "+7 (903) 755-56-98"], "id": "76522", "city": "ЗЕЛЕНОГРАД" }},
      { "type": "Feature", "geometry": { "type": "Point", "coordinates": [55.989466, 37.226329] }, "properties": { "name": "ИП Акалупина Т.Е.", "address": "д. 601", "phone": ["+7 (963) 772-13-86"], "id": "10462", "city": "ЗЕЛЕНОГРАД" }},
      { "type": "Feature", "geometry": { "type": "Point", "coordinates": [55.994966, 37.18842234] }, "properties": { "name": "МЕГА ФАРМ", "address": "корп. 1104", "phone": ["+7 (903) 754-82-15"], "id": "76571", "city": "ЗЕЛЕНОГРАД" }},
      { "type": "Feature", "geometry": { "type": "Point", "coordinates": [55.983469, 37.154132] }, "properties": { "name": "МЕГА ФАРМ", "address": "корп. 1508", "phone": ["+7 (903) 754-50-06"], "id": "109417", "city": "ЗЕЛЕНОГРАД" }},
      { "type": "Feature", "geometry": { "type": "Point", "coordinates": [55.975617, 37.168729] }, "properties": { "name": "ИП Орионова Е.В.", "social": true,  "address": "корп. 2024", "phone": ["+7 (499) 394-31-05"], "id": "99760", "city": "ЗЕЛЕНОГРАД"}},
      { "type": "Feature", "geometry": { "type": "Point", "coordinates": [55.985121, 37.233246] }, "properties": { "name": "Добрый аптекарь", "social": true,  "address": "корп. 708", "phone": ["+7 (495) 663-21-18"], "id": "185811", "city": "ЗЕЛЕНОГРАД"}},
      { "type": "Feature", "geometry": { "type": "Point", "coordinates": [55.981424, 37.18416669] }, "properties": { "name": "МЕГА ФАРМ", "address": "корп. 900", "phone": ["+7 (495) 967-69-40", "+7 (903) 289-45-47"], "id": "76589", "city": "ЗЕЛЕНОГРАД" }},
      { "type": "Feature", "geometry": { "type": "Point", "coordinates": [56.000346, 37.207177] }, "properties": { "name": "МЕГА ФАРМ", "social": true,  "address": "корпус 403", "phone": ["+7 (968) 778-18-09"], "id": "167400", "city": "ЗЕЛЕНОГРАД"}},
      { "type": "Feature", "geometry": { "type": "Point", "coordinates": [56.012179, 37.202075] }, "properties": { "name": "ЗелМедЦентр", "address": "Проспект Панфиловский, д. 10", "phone": ["+7 (495) 988-87-04", "+7 (916) 462-94-77"], "id": "112204", "city": "ЗЕЛЕНОГРАД" }},
      { "type": "Feature", "geometry": { "type": "Point", "coordinates": [55.991098, 37.217166] }, "properties": { "name": "225 аптека", "address": "Савелкинский проезд, д. 4", "phone": ["+7 (495) 739-41-73"], "id": "847", "city": "ЗЕЛЕНОГРАД"}},
      { "type": "Feature", "geometry": { "type": "Point", "coordinates": [55.473276, 37.53897] }, "properties": { "name": "Аптеки ВИВА", "address": "д. 2", "phone": ["+7 (495) 003-74-24"], "id": "10306", "city": "ЗНАМЯ ОКТЯБРЯ" }},
      { "type": "Feature", "geometry": { "type": "Point", "coordinates": [56.275904, 37.982179] }, "properties": { "name": "НОРС", "social": true,  "address": "д. 44, а", "phone": ["+7 (917) 569-83-87", "+7 (966) 347-14-02"], "id": "112239", "city": "ЗОЛОТИЛОВО"}},
      { "type": "Feature", "geometry": { "type": "Point", "coordinates": [55.975229, 37.940822] }, "properties": { "name": "Мега Фарм", "address": "Бережок, д. 5", "phone": ["+7 (903) 289-57-50"], "id": "136249", "city": "ИВАНТЕЕВКА" }},
      { "type": "Feature", "geometry": { "type": "Point", "coordinates": [55.96929, 37.914501] }, "properties": { "name": "Этна", "address": "Новая Слобода, д. 3", "phone": ["+7 (496) 587-70-97"], "id": "31470", "city": "ИВАНТЕЕВКА" }},
      { "type": "Feature", "geometry": { "type": "Point", "coordinates": [55.968705, 37.915121] }, "properties": { "name": "МИКРОГРАММ", "address": "Новая Слобода, д. 4", "phone": ["+7 (926) 070-95-52"], "id": "31468", "city": "ИВАНТЕЕВКА" }},
      { "type": "Feature", "geometry": { "type": "Point", "coordinates": [55.975385, 37.910594] }, "properties": { "name": "ИП Дворников В. Г.", "address": "Первомайская, д. 29", "phone": ["+7 (926) 864-88-46", "+7 (926) 864-88-47"], "id": "3387", "city": "ИВАНТЕЕВКА" }},
      { "type": "Feature", "geometry": { "type": "Point", "coordinates": [55.971083, 37.963451] }, "properties": { "name": "Димфарм-4", "address": "Победы, д. 4", "phone": ["+7 (496) 536-88-65"], "id": "932", "city": "ИВАНТЕЕВКА" }},
      { "type": "Feature", "geometry": { "type": "Point", "coordinates": [55.97531, 37.915085] }, "properties": { "name": "Рута", "address": "проезд Фабричный, д. 3, а", "phone": ["+7 (926) 864-88-46"], "id": "16474", "city": "ИВАНТЕЕВКА" }},
      { "type": "Feature", "geometry": { "type": "Point", "coordinates": [55.964871, 37.915238] }, "properties": { "name": "Фарма +", "address": "Толмачева, д. 6", "phone": ["+7 (926) 641-40-44"], "id": "11478", "city": "ИВАНТЕЕВКА" }},
      { "type": "Feature", "geometry": { "type": "Point", "coordinates": [55.971053, 37.932351] }, "properties": { "name": "Фармаком +", "address": "Хлебозаводская, д. 35\/2", "phone": ["+7 (925) 532-81-06"], "id": "11080", "city": "ИВАНТЕЕВКА" }},
      { "type": "Feature", "geometry": { "type": "Point", "coordinates": [56.166501, 37.501438] }, "properties": { "name": "Пенткрофт фарма", "address": "Водников, д. 9", "phone": ["+7 (495) 246-04-57"], "id": "3303", "city": "ИКША" }},
      { "type": "Feature", "geometry": { "type": "Point", "coordinates": [56.173412, 37.500243] }, "properties": { "name": "Пенткрофт фарма", "address": "Школьная, д. 6", "phone": ["+7 (499) 322-43-86"], "id": "31656", "city": "ИКША" }},
      { "type": "Feature", "geometry": { "type": "Point", "coordinates": [55.614043, 38.102932] }, "properties": { "name": "А-МЕГА", "address": "Чкалова, д. 2, корп. 2", "phone": ["+7 (903) 753-92-27"], "id": "85601", "city": "ИЛЬИНСКИЙ" }},
      { "type": "Feature", "geometry": { "type": "Point", "coordinates": [55.765569, 37.213699] }, "properties": { "name": "МЕГА ФАРМ", "address": "26 км", "phone": ["+7 (903) 754-08-31"], "id": "109411", "city": "ИЛЬИНСКОЕ-УСОВО" }},
      { "type": "Feature", "geometry": { "type": "Point", "coordinates": [55.913338, 36.86747] }, "properties": { "name": "Оммус", "address": "9 Гвардейской Дивизии, д. 33", "phone": ["+7 (495) 994-61-19", "+7 (498) 313-36-85", "+7 (498) 314-63-31"], "id": "2206", "city": "ИСТРА" }},
      { "type": "Feature", "geometry": { "type": "Point", "coordinates": [55.913394, 36.864982] }, "properties": { "name": "Ваша Аптека", "address": "9 Гвардейской Дивизии, д. 9", "phone": ["+7 (498) 729-86-04"], "id": "6775", "city": "ИСТРА" }},
      { "type": "Feature", "geometry": { "type": "Point", "coordinates": [55.911479, 36.861327] }, "properties": { "name": "Иримакс", "address": "Главного Конструктора В.И.Адасько, д. 4, корп. 4", "phone": ["+7 (498) 319-68-14", "+7 (926) 888-44-88"], "id": "16220", "city": "ИСТРА" }},
      { "type": "Feature", "geometry": { "type": "Point", "coordinates": [55.90858, 36.84265] }, "properties": { "name": "О Вита", "address": "Железнодорожная, д. 3", "phone": ["+7 (926) 641-40-44"], "id": "1876", "city": "ИСТРА" }},
      { "type": "Feature", "geometry": { "type": "Point", "coordinates": [55.906128, 36.860984] }, "properties": { "name": "Оммус", "address": "Ленина, д. 4, б", "phone": ["+7 (496) 313-36-85"], "id": "1360", "city": "ИСТРА" }},
      { "type": "Feature", "geometry": { "type": "Point", "coordinates": [55.915356, 36.860517] }, "properties": { "name": "Филин", "address": "Ленина, д. 80, а", "phone": ["+7 (498) 314-44-92"], "id": "6835", "city": "ИСТРА" }},
      { "type": "Feature", "geometry": { "type": "Point", "coordinates": [55.91184, 36.8263] }, "properties": { "name": "Союз", "address": "Панфилова, д. 2", "phone": ["+7 (498) 317-23-93", "+7 (498) 319-66-52"], "id": "2489", "city": "ИСТРА" }},
      { "type": "Feature", "geometry": { "type": "Point", "coordinates": [55.912314, 36.825663] }, "properties": { "name": "Союз", "address": "Панфилова, д. 5, а", "phone": ["+7 (498) 314-55-49"], "id": "1780", "city": "ИСТРА" }},
      { "type": "Feature", "geometry": { "type": "Point", "coordinates": [55.915397, 36.857696] }, "properties": { "name": "Столетник", "address": "площадь Революции, д. 6", "phone": ["+7 (926) 641-40-44"], "id": "1758", "city": "ИСТРА" }},
      { "type": "Feature", "geometry": { "type": "Point", "coordinates": [55.91975, 36.869958] }, "properties": { "name": "Столетник", "address": "Советская, д. 39, б", "phone": ["+7 (926) 641-40-44"], "id": "163839", "city": "ИСТРА" }},
      { "type": "Feature", "geometry": { "type": "Point", "coordinates": [55.927578, 36.868027] }, "properties": { "name": "ЛИК", "address": "Урицкого, д. 100, а", "phone": ["+7 (916) 020-41-64", "+7 (916) 023-40-43"], "id": "6792", "city": "ИСТРА" }},
      { "type": "Feature", "geometry": { "type": "Point", "coordinates": [55.927483, 36.86712] }, "properties": { "name": "Сибирь", "address": "Урицкого, д. 81", "phone": ["+7 (929) 626-36-18"], "id": "6824", "city": "ИСТРА" }},
      { "type": "Feature", "geometry": { "type": "Point", "coordinates": [55.270082, 36.823138] }, "properties": { "name": "Мицар-Н", "address": "Центральная, д. 34, а", "phone": ["+7 (963) 710-42-09"], "id": "155444", "city": "КАМЕНСКОЕ" }},
      { "type": "Feature", "geometry": { "type": "Point", "coordinates": [54.840479, 38.245728] }, "properties": { "name": "Витафарм", "address": "Садовая, д. 24", "phone": ["+7 (496) 692-55-56"], "id": "1586", "city": "КАШИРА" }},
      { "type": "Feature", "geometry": { "type": "Point", "coordinates": [54.843419, 38.246222] }, "properties": { "name": "Адонис", "address": "Садовая, д. 27", "phone": ["+7 (926) 141-82-40"], "id": "6913", "city": "КАШИРА" }},
      { "type": "Feature", "geometry": { "type": "Point", "coordinates": [54.839365, 38.245962] }, "properties": { "name": "Мега Фарм", "address": "Садовая, д. 28", "phone": ["+7 (985) 129-24-01"], "id": "139063", "city": "КАШИРА" }},
      { "type": "Feature", "geometry": { "type": "Point", "coordinates": [55.324099, 37.342921] }, "properties": { "name": "Градествите", "address": "Октябрьская, д. 11", "phone": ["+7 (926) 884-75-05"], "id": "33331", "city": "КЛЕНОВО" }},
      { "type": "Feature", "geometry": { "type": "Point", "coordinates": [55.376232, 37.535242] }, "properties": { "name": "Фарм-А", "address": "Симферопольская, д. 11", "phone": ["+7 (966) 024-88-71"], "id": "112178", "city": "КЛИМОВСК" }},
      { "type": "Feature", "geometry": { "type": "Point", "coordinates": [56.32499, 36.728707] }, "properties": { "name": "МАНЭ", "address": "Бородинский проезд, д. 17, а", "phone": ["+7 (926) 582-37-17"], "id": "33350", "city": "КЛИН" }},
      { "type": "Feature", "geometry": { "type": "Point", "coordinates": [56.320948, 36.729456] }, "properties": { "name": "МЕГА ФАРМ", "social": true,  "address": "Бородинский проспект, д. 31, стр. 1", "phone": ["+7 (968) 778-17-95"], "id": "167408", "city": "КЛИН"}},
      { "type": "Feature", "geometry": { "type": "Point", "coordinates": [56.320118, 36.728213] }, "properties": { "name": "АРС", "address": "Бородинский, д. 31, стр. 2", "phone": ["+7 (496) 249-05-86"], "id": "2197", "city": "КЛИН" }},
      { "type": "Feature", "geometry": { "type": "Point", "coordinates": [56.33316, 36.711774] }, "properties": { "name": "Спасатель", "address": "Карла Маркса, д. 2, а", "phone": ["+7 (985) 802-65-19"], "id": "3834", "city": "КЛИН" }},
      { "type": "Feature", "geometry": { "type": "Point", "coordinates": [56.316354, 36.762044] }, "properties": { "name": "Оазис", "address": "Клинская, д. 4, корп. 5", "phone": ["+7 (496) 245-83-48"], "id": "33320", "city": "КЛИН" }},
      { "type": "Feature", "geometry": { "type": "Point", "coordinates": [56.330899, 36.754776] }, "properties": { "name": "ЗАИР", "address": "Котовского, д. 16, б", "phone": ["+7 (496) 249-03-92"], "id": "2476", "city": "КЛИН" }},
      { "type": "Feature", "geometry": { "type": "Point", "coordinates": [56.329432, 36.722195] }, "properties": { "name": "Проффит", "address": "Крюкова, д. 11", "phone": ["+7 (496) 242-37-35"], "id": "2341", "city": "КЛИН" }},
      { "type": "Feature", "geometry": { "type": "Point", "coordinates": [56.323108, 36.730199] }, "properties": { "name": "Новая, Бионд", "address": "Мира, д. 58\/25", "phone": ["+7 (496) 247-60-07", "+7 (926) 582-37-17"], "id": "1545", "city": "КЛИН" }},
      { "type": "Feature", "geometry": { "type": "Point", "coordinates": [56.33568, 36.733648] }, "properties": { "name": "Проффит", "address": "Советская, д. 20", "phone": ["+7 (496) 242-41-05"], "id": "1972", "city": "КЛИН" }},
      { "type": "Feature", "geometry": { "type": "Point", "coordinates": [56.334862, 36.713427] }, "properties": { "name": "Проффит", "address": "Станционная, д. 10", "phone": ["+7 (496) 242-37-35"], "id": "2435", "city": "КЛИН" }},
      { "type": "Feature", "geometry": { "type": "Point", "coordinates": [56.37158, 36.701875] }, "properties": { "name": "Витофарм-Сервис", "address": "Центральная, д. 61, б", "phone": ["+7 (496) 247-74-82"], "id": "10328", "city": "КЛИН" }},
      { "type": "Feature", "geometry": { "type": "Point", "coordinates": [56.319569, 36.762017] }, "properties": { "name": "Витофарм-Сервис", "address": "Чайковского, д. 64", "phone": ["+7 (496) 247-74-82"], "id": "10332", "city": "КЛИН" }},
      { "type": "Feature", "geometry": { "type": "Point", "coordinates": [56.323717, 36.757974] }, "properties": { "name": "Оазис", "address": "Чайковского, д. 99", "phone": ["+7 (496) 245-83-48"], "id": "2095", "city": "КЛИН" }},
      { "type": "Feature", "geometry": { "type": "Point", "coordinates": [55.601249, 37.16466] }, "properties": { "name": "МЕГА ФАРМ", "social": true,  "address": "Дзержинского, д. 2, а", "phone": ["+7 (915) 387-59-59"], "id": "167399", "city": "КОКОШКИНО"}},
      { "type": "Feature", "geometry": { "type": "Point", "coordinates": [55.60042, 37.163582] }, "properties": { "name": "Мари-Фарм", "address": "Школьная, д. 1", "phone": ["+7 (495) 847-93-24"], "id": "101982", "city": "КОКОШКИНО" }},
      { "type": "Feature", "geometry": { "type": "Point", "coordinates": [55.056244, 38.746728] }, "properties": { "name": "Узон", "address": "Гаврилова, д. 4", "phone": ["+7 (496) 610-09-59"], "id": "2552", "city": "КОЛОМНА" }},
      { "type": "Feature", "geometry": { "type": "Point", "coordinates": [55.082045, 38.799225] }, "properties": { "name": "Узон", "address": "Гагарина, д. 16", "phone": ["+7 (496) 610-08-03"], "id": "3805", "city": "КОЛОМНА" }},
      { "type": "Feature", "geometry": { "type": "Point", "coordinates": [55.05431, 38.74441] }, "properties": { "name": "ООО «Мега Фарм»", "address": "Захарова, д. 2, корп. 2", "phone": ["+7 (7) 903754-31-69"], "id": "156397", "city": "КОЛОМНА" }},
      { "type": "Feature", "geometry": { "type": "Point", "coordinates": [55.098434, 38.776642] }, "properties": { "name": "Атлант", "address": "Льва Толстого, д. 3, а", "phone": ["+7 (496) 612-81-64"], "id": "1765", "city": "КОЛОМНА" }},
      { "type": "Feature", "geometry": { "type": "Point", "coordinates": [55.107679, 38.73566] }, "properties": { "name": "Берегиня", "address": "Малинское шоссе, д. 65", "phone": ["+7 (496) 618-23-17"], "id": "10308", "city": "КОЛОМНА" }},
      { "type": "Feature", "geometry": { "type": "Point", "coordinates": [55.082781, 38.801067] }, "properties": { "name": "МЕГА ФАРМ", "address": "Октябрьской Революции, д. 366\/2", "phone": ["+7 (495) 967-69-40", "+7 (903) 289-60-09"], "id": "76568", "city": "КОЛОМНА" }},
      { "type": "Feature", "geometry": { "type": "Point", "coordinates": [55.101937, 38.755549] }, "properties": { "name": "Мицар-Н", "address": "площадь Двух Революций, д. 1", "phone": ["+7 (499) 703-03-05"], "id": "155446", "city": "КОЛОМНА" }},
      { "type": "Feature", "geometry": { "type": "Point", "coordinates": [55.098537, 38.779534] }, "properties": { "name": "МЕГА ФАРМ", "address": "Полянская, д. 25", "phone": ["+7 (968) 778-16-30"], "id": "109422", "city": "КОЛОМНА" }},
      { "type": "Feature", "geometry": { "type": "Point", "coordinates": [55.083075, 38.76234] }, "properties": { "name": "МЕГА ФАРМ", "address": "Проспект Кирова, д. 30", "phone": ["+7 (495) 967-69-40", "+7 (903) 289-61-78"], "id": "76516", "city": "КОЛОМНА" }},
      { "type": "Feature", "geometry": { "type": "Point", "coordinates": [55.076283, 38.800681] }, "properties": { "name": "Атлант", "address": "Проспект Окский, д. 24", "phone": ["+7 (496) 623-15-30"], "id": "2637", "city": "КОЛОМНА" }},
      { "type": "Feature", "geometry": { "type": "Point", "coordinates": [55.082982, 38.772968] }, "properties": { "name": "МЕГА ФАРМ", "address": "Фрунзе, д. 47", "phone": ["+7 (495) 967-69-40", "+7 (903) 279-27-71"], "id": "76519", "city": "КОЛОМНА" }},
      { "type": "Feature", "geometry": { "type": "Point", "coordinates": [55.669742, 36.534869] }, "properties": { "name": "Жинал", "address": "Попова, д. 7", "phone": ["+7 (496) 275-01-22"], "id": "2280", "city": "КОЛЮБАКИНО" }},
      { "type": "Feature", "geometry": { "type": "Point", "coordinates": [55.567143, 37.472917] }, "properties": { "name": "ИСТОЧНИК ЗДОРОВЬЯ", "address": "Лазурная, д. 7", "phone": [""], "id": "52914", "city": "КОММУНАРКА" }},
      { "type": "Feature", "geometry": { "type": "Point", "coordinates": [55.5699318, 37.4914733] }, "properties": { "name": "ЮНИФАРМА", "address": "Липовый парк, д. 4, корп. 1", "phone": ["+7 (495) 121-08-55"], "id": "104934", "city": "КОММУНАРКА" }},
      { "type": "Feature", "geometry": { "type": "Point", "coordinates": [55.915054, 37.820744] }, "properties": { "name": "385 аптека", "address": "Гагарина, д. 44, а", "phone": ["+7 (495) 511-56-43"], "id": "1976", "city": "КОРОЛЕВ" }},
      { "type": "Feature", "geometry": { "type": "Point", "coordinates": [55.912092, 37.871041] }, "properties": { "name": "МИЦАР МО", "address": "Горького, д. 14", "phone": ["+7 (964) 534-96-81"], "id": "155473", "city": "КОРОЛЁВ" }},
      { "type": "Feature", "geometry": { "type": "Point", "coordinates": [55.920628, 37.815498] }, "properties": { "name": "Сервис Плюс", "address": "Калинина, д. 13\/8", "phone": ["+7 (495) 516-89-43"], "id": "112115", "city": "КОРОЛЕВ" }},
      { "type": "Feature", "geometry": { "type": "Point", "coordinates": [55.922192, 37.849419] }, "properties": { "name": "Арника", "address": "Королева проспект, д. 9", "phone": ["+7 (925) 743-98-42"], "id": "1528", "city": "КОРОЛЕВ" }},
      { "type": "Feature", "geometry": { "type": "Point", "coordinates": [55.918383, 37.869022] }, "properties": { "name": "Амулет-К", "address": "Космонавтов проспект, д. 11", "phone": ["+7 (498) 602-76-34"], "id": "33318", "city": "КОРОЛЕВ" }},
      { "type": "Feature", "geometry": { "type": "Point", "coordinates": [55.918903, 37.806246] }, "properties": { "name": "ФармаТ", "social": true,  "address": "Ленина, д. 10\/6", "phone": ["+7 (926) 001-71-27"], "id": "187249", "city": "КОРОЛЕВ"}},
      { "type": "Feature", "geometry": { "type": "Point", "coordinates": [55.904927, 37.845762] }, "properties": { "name": "ПАНАЦЕЯ", "address": "Мичурина, д. 27, корп. 1", "phone": ["+7 (495) 120-04-39"], "id": "112268", "city": "КОРОЛЕВ" }},
      { "type": "Feature", "geometry": { "type": "Point", "coordinates": [55.909186, 37.867591] }, "properties": { "name": "Подорожник", "address": "Проспект Космонавтов, д. 37, корп. 1", "phone": ["+7 (495) 500-06-10", "+7 (498) 720-04-92"], "id": "112233", "city": "КОРОЛЕВ" }},
      { "type": "Feature", "geometry": { "type": "Point", "coordinates": [55.9334635, 37.8444926] }, "properties": { "name": "КВИН", "address": "Пушкинская, д. 13", "phone": ["+7 (495) 589-05-18"], "id": "159585", "city": "КОРОЛЕВ" }},
      { "type": "Feature", "geometry": { "type": "Point", "coordinates": [55.932374, 37.837965] }, "properties": { "name": "Кривобородов и К", "address": "Пушкинская, д. 15", "phone": ["+7 (926) 641-40-44", "+7 (936) 000-16-46"], "id": "163842", "city": "КОРОЛЕВ" }},
      { "type": "Feature", "geometry": { "type": "Point", "coordinates": [55.473868, 36.361036] }, "properties": { "name": "Знахарь", "address": "д. 1, а", "phone": ["+7 (985) 964-07-12"], "id": "2954", "city": "КОСМОДЕМЬЯНСКИЙ" }},
      { "type": "Feature", "geometry": { "type": "Point", "coordinates": [55.892799, 36.70015] }, "properties": { "name": "Болдино", "address": "Центральная", "phone": ["+7 (498) 316-26-60"], "id": "3762", "city": "КОСТРОВО" }},
      { "type": "Feature", "geometry": { "type": "Point", "coordinates": [55.658232, 37.85695] }, "properties": { "name": "Доктор Александров", "address": "2-й Покровский проезд, д. 4, корп. 1", "phone": ["+7 (495) 972-57-55"], "id": "3243", "city": "КОТЕЛЬНИКИ" }},
      { "type": "Feature", "geometry": { "type": "Point", "coordinates": [55.666888, 37.860612] }, "properties": { "name": "ЮНИФАРМА 1", "address": "Кузьминская, д. 17, б", "phone": ["+7 (495) 121-08-46"], "id": "48393", "city": "КОТЕЛЬНИКИ" }},
      { "type": "Feature", "geometry": { "type": "Point", "coordinates": [55.657954, 37.869394] }, "properties": { "name": "Доктор Александров", "social": true,  "address": "микрорайон Ковровый, остановка \"Ковровый комбинат\"", "phone": ["+7 (901) 546-57-55", "+7 (901) 972-57-55"], "id": "112175", "city": "КОТЕЛЬНИКИ"}},
      { "type": "Feature", "geometry": { "type": "Point", "coordinates": [55.647894, 37.860845] }, "properties": { "name": "ВИВА", "address": "Микрорайон Южный, д. 3", "phone": ["+7 (498) 672-13-24"], "id": "6978", "city": "КОТЕЛЬНИКИ" }},
      { "type": "Feature", "geometry": { "type": "Point", "coordinates": [55.661917, 37.97485] }, "properties": { "name": "МИЦАР МО", "address": "2-я Заводская, д. 16", "phone": ["+7 (985) 780-74-11"], "id": "155481", "city": "КРАСКОВО" }},
      { "type": "Feature", "geometry": { "type": "Point", "coordinates": [55.659922, 37.977788] }, "properties": { "name": "ИП Захарова Н.Н.", "address": "Заводская 2-я, д. 24", "phone": ["+7 (925) 540-72-49"], "id": "1759", "city": "КРАСКОВО" }},
      { "type": "Feature", "geometry": { "type": "Point", "coordinates": [55.6579438, 37.9821822] }, "properties": { "name": "ФармАвторитет", "social": true,  "address": "Карла Маркса, д. 61", "phone": ["+7 (919) 768-84-55", "+7 (977) 560-14-29"], "id": "112292", "city": "КРАСКОВО"}},
      { "type": "Feature", "geometry": { "type": "Point", "coordinates": [55.673732, 38.005851] }, "properties": { "name": "Тимафарм", "address": "Лорха, д. 7", "phone": ["+7 (495) 646-78-05"], "id": "1400", "city": "КРАСКОВО" }},
      { "type": "Feature", "geometry": { "type": "Point", "coordinates": [56.122364, 38.140625] }, "properties": { "name": "Столетник-Фарма", "address": "Комсомольская, д. 10", "phone": ["+7 (926) 641-40-44"], "id": "2302", "city": "КРАСНОАРМЕЙСК" }},
      { "type": "Feature", "geometry": { "type": "Point", "coordinates": [56.103226, 38.137751] }, "properties": { "name": "30 аптека", "address": "Новая Жизнь, д. 1", "phone": ["+7 (496) 538-21-20"], "id": "1582", "city": "КРАСНОАРМЕЙСК" }},
      { "type": "Feature", "geometry": { "type": "Point", "coordinates": [56.102604, 38.136673] }, "properties": { "name": "ООО &quot;Столетник-Фарма&quot;", "address": "Новая Жизнь, д. 2", "phone": ["+7 (926) 641-40-44"], "id": "14190", "city": "КРАСНОАРМЕЙСК" }},
      { "type": "Feature", "geometry": { "type": "Point", "coordinates": [56.122454, 38.137113] }, "properties": { "name": "Столетник-Фарма", "address": "Пионерская, д. 7", "phone": ["+7 (926) 641-40-44"], "id": "11473", "city": "КРАСНОАРМЕЙСК" }},
      { "type": "Feature", "geometry": { "type": "Point", "coordinates": [56.122811, 38.135388] }, "properties": { "name": "Вита Ру", "social": true,  "address": "проспект Ленина, д. 17", "phone": ["+7 (905) 718-40-51"], "id": "112155", "city": "КРАСНОАРМЕЙСК"}},
      { "type": "Feature", "geometry": { "type": "Point", "coordinates": [56.117933, 38.143572] }, "properties": { "name": "Вита Ру", "address": "Северный, д. 22, а", "phone": ["+7 (496) 537-36-32"], "id": "2871", "city": "КРАСНОАРМЕЙСК" }},
      { "type": "Feature", "geometry": { "type": "Point", "coordinates": [55.834441, 37.276895] }, "properties": { "name": "Клевер ВЭС", "address": "Бульвар Космонавтов, д. 6", "phone": ["+7 (495) 535-70-50"], "id": "31708", "city": "КРАСНОГОРСК" }},
      { "type": "Feature", "geometry": { "type": "Point", "coordinates": [55.857154, 37.1727] }, "properties": { "name": "АлексанДрин", "address": "Волоколамская 1-я, д. 1", "phone": ["+7 (495) 643-18-77", "+7 (926) 943-19-93"], "id": "6771", "city": "КРАСНОГОРСК" }},
      { "type": "Feature", "geometry": { "type": "Point", "coordinates": [55.813425, 37.309271] }, "properties": { "name": "Экофарм", "address": "Железнодорожная, д. 33", "phone": ["+7 (495) 562-55-94"], "id": "16233", "city": "КРАСНОГОРСК" }},
      { "type": "Feature", "geometry": { "type": "Point", "coordinates": [55.8128777, 37.3448503] }, "properties": { "name": "Благодея", "address": "Железнодорожный пер, д. зание МПС", "phone": ["+7 (916) 971-65-91"], "id": "31701", "city": "КРАСНОГОРСК" }},
      { "type": "Feature", "geometry": { "type": "Point", "coordinates": [55.816976, 37.340056] }, "properties": { "name": "Авант-Л", "address": "Железнодорожный переулок, д. 1, а", "phone": ["+7 (498) 568-06-59"], "id": "16210", "city": "КРАСНОГОРСК" }},
      { "type": "Feature", "geometry": { "type": "Point", "coordinates": [55.80996, 37.323617] }, "properties": { "name": "АлексанДрин", "address": "Заводская, д. 27", "phone": ["+7 (495) 643-18-77"], "id": "4036", "city": "КРАСНОГОРСК" }},
      { "type": "Feature", "geometry": { "type": "Point", "coordinates": [55.808189, 37.325674] }, "properties": { "name": "Экофарм", "address": "Заводская, д. 31", "phone": ["+7 (495) 561-32-90"], "id": "16234", "city": "КРАСНОГОРСК" }},
      { "type": "Feature", "geometry": { "type": "Point", "coordinates": [55.835655, 37.270059] }, "properties": { "name": "Клевер ВЭС", "address": "Игоря Мерлушкина, д. 4", "phone": ["+7 (910) 002-10-77"], "id": "31707", "city": "КРАСНОГОРСК" }},
      { "type": "Feature", "geometry": { "type": "Point", "coordinates": [55.818351, 37.370437] }, "properties": { "name": "РАН Фарма", "address": "Ильинский бульвар, д. 7", "phone": ["+7 (498) 308-50-51"], "id": "12248", "city": "КРАСНОГОРСК" }},
      { "type": "Feature", "geometry": { "type": "Point", "coordinates": [55.81718, 37.369883] }, "properties": { "name": "ООО «ЛИЛАНИ»", "address": "Ильинский бульвар, д. 8", "phone": ["+7 (495) 640-98-78", "+7 (495) 640-98-78"], "id": "7141", "city": "КРАСНОГОРСК" }},
      { "type": "Feature", "geometry": { "type": "Point", "coordinates": [55.814239, 37.343146] }, "properties": { "name": "Инфарм", "address": "Ильинское шоссе, д. 6", "phone": ["+7 (495) 562-67-42", "+7 (495) 562-85-93"], "id": "6787", "city": "КРАСНОГОРСК" }},
      { "type": "Feature", "geometry": { "type": "Point", "coordinates": [55.840098, 37.300153] }, "properties": { "name": "Фармек", "address": "Карбышева", "phone": ["+7 (498) 715-70-08", "+7 (498) 720-24-20"], "id": "3516", "city": "КРАСНОГОРСК" }},
      { "type": "Feature", "geometry": { "type": "Point", "coordinates": [55.836448, 37.314121] }, "properties": { "name": "Экофарм", "address": "Кирова, д. 7", "phone": ["+7 (495) 563-03-07"], "id": "16236", "city": "КРАСНОГОРСК" }},
      { "type": "Feature", "geometry": { "type": "Point", "coordinates": [55.83247, 37.345805] }, "properties": { "name": "МЕГА ФАРМ", "address": "Красногорск Митино, д. 3", "phone": ["+7 (903) 754-07-93"], "id": "109408", "city": "КРАСНОГОРСК" }},
      { "type": "Feature", "geometry": { "type": "Point", "coordinates": [55.81605, 37.365146] }, "properties": { "name": "Енисей", "address": "Красногорский бульвар, д. 9", "phone": ["+7 (498) 754-15-65"], "id": "31675", "city": "КРАСНОГОРСК" }},
      { "type": "Feature", "geometry": { "type": "Point", "coordinates": [55.835988, 37.322377] }, "properties": { "name": "Ариа-Фарма", "address": "Лесная, д. 17", "phone": ["+7 (916) 751-03-65"], "id": "7390", "city": "КРАСНОГОРСК" }},
      { "type": "Feature", "geometry": { "type": "Point", "coordinates": [55.826893, 37.332824] }, "properties": { "name": "МЕГА ФАРМ", "social": true,  "address": "Октябрьская, д. 13", "phone": ["+7 (903) 754-07-34"], "id": "167382", "city": "КРАСНОГОРСК"}},
      { "type": "Feature", "geometry": { "type": "Point", "coordinates": [55.822969, 37.335915] }, "properties": { "name": "Аптека &quot;Доверие&quot;", "address": "Октябрьская, д. 5", "phone": ["+7 (926) 484-66-86"], "id": "31700", "city": "КРАСНОГОРСК" }},
      { "type": "Feature", "geometry": { "type": "Point", "coordinates": [55.816067, 37.368191] }, "properties": { "name": "А-МЕГА", "address": "Павшинский бульвар, д. 20", "phone": ["+7 (903) 289-51-16"], "id": "85584", "city": "КРАСНОГОРСК" }},
      { "type": "Feature", "geometry": { "type": "Point", "coordinates": [55.834714, 37.318793] }, "properties": { "name": "Союз", "address": "Парковая, д. 1", "phone": ["+7 (49878) 6-14-62"], "id": "31687", "city": "КРАСНОГОРСК" }},
      { "type": "Feature", "geometry": { "type": "Point", "coordinates": [55.82224, 37.372826] }, "properties": { "name": "ООО «ЛИЛАНИ»", "address": "Подмосковный б-р, д. 12", "phone": ["+7 (495) 640-87-47", "+7 (495) 640-87-47"], "id": "7144", "city": "КРАСНОГОРСК" }},
      { "type": "Feature", "geometry": { "type": "Point", "coordinates": [55.819772, 37.364535] }, "properties": { "name": "МЕГА ФАРМ", "address": "Подмосковный бульвар, д. 1", "phone": ["+7 (495) 967-69-40", "+7 (903) 278-34-60"], "id": "76579", "city": "КРАСНОГОРСК" }},
      { "type": "Feature", "geometry": { "type": "Point", "coordinates": [55.814785, 37.328414] }, "properties": { "name": "Фарма +", "address": "проезд Железнодорожный, д. 11", "phone": ["+7 (926) 641-40-44"], "id": "11479", "city": "КРАСНОГОРСК" }},
      { "type": "Feature", "geometry": { "type": "Point", "coordinates": [55.822372, 37.339131] }, "properties": { "name": "Экспо", "address": "Речная, д. 5", "phone": ["+7 (495) 505-93-83", "+7 (495) 561-89-16"], "id": "2624", "city": "КРАСНОГОРСК" }},
      { "type": "Feature", "geometry": { "type": "Point", "coordinates": [55.860701, 37.393028] }, "properties": { "name": "Смолякова Е.В.", "address": "Садовая, д. 20", "phone": ["+7 (495) 746-16-26", "+7 (499) 922-09-09"], "id": "6819", "city": "КРАСНОГОРСК" }},
      { "type": "Feature", "geometry": { "type": "Point", "coordinates": [55.825406, 37.368631] }, "properties": { "name": "Натуральная фармация МСК", "address": "Спасская, д. 4", "phone": ["+7 (962) 931-16-31"], "id": "17774", "city": "КРАСНОГОРСК" }},
      { "type": "Feature", "geometry": { "type": "Point", "coordinates": [55.825295, 37.370078] }, "properties": { "name": "Виктория", "address": "Спасская, д. 6", "phone": ["+7 (985) 233-72-86"], "id": "112240", "city": "КРАСНОГОРСК" }},
      { "type": "Feature", "geometry": { "type": "Point", "coordinates": [55.834178, 37.292751] }, "properties": { "name": "Фармек", "address": "Успенская, д. 28", "phone": ["+7 (498) 715-70-08", "+7 (498) 720-24-20"], "id": "1087", "city": "КРАСНОГОРСК" }},
      { "type": "Feature", "geometry": { "type": "Point", "coordinates": [55.604351, 37.031278] }, "properties": { "name": "Вереск", "address": "Гагарина, д. 18", "phone": ["+7 (915) 445-74-48"], "id": "2999", "city": "КРАСНОЗНАМЕНСК" }},
      { "type": "Feature", "geometry": { "type": "Point", "coordinates": [55.59541, 37.038779] }, "properties": { "name": "Голиос", "address": "Краснознаменная, д. 23, а", "phone": ["+7 (498) 676-14-13"], "id": "2579", "city": "КРАСНОЗНАМЕНСК" }},
      { "type": "Feature", "geometry": { "type": "Point", "coordinates": [55.597851, 37.036344] }, "properties": { "name": "Голиос", "address": "Победы, д. 9, б", "phone": ["+7 (498) 676-14-13", "+7 (498) 676-14-13"], "id": "2560", "city": "КРАСНОЗНАМЕНСК" }},
      { "type": "Feature", "geometry": { "type": "Point", "coordinates": [55.595595, 37.051427] }, "properties": { "name": "ВЕРЕСК", "address": "Связистов, д. 12A, а", "phone": ["+7 (985) 880-85-46"], "id": "2243", "city": "КРАСНОЗНАМЕНСК" }},
      { "type": "Feature", "geometry": { "type": "Point", "coordinates": [55.612497, 38.158538] }, "properties": { "name": "Спринт", "social": true,  "address": "Мира, д. 12", "phone": ["+7 (926) 972-60-40"], "id": "112277", "city": "КРАТОВО"}},
      { "type": "Feature", "geometry": { "type": "Point", "coordinates": [55.546363, 39.697163] }, "properties": { "name": "Мицар-Н", "address": "д. 1", "phone": ["+7 (963) 711-16-65"], "id": "155466", "city": "КРИВАНДИНСКОЕ" }},
      { "type": "Feature", "geometry": { "type": "Point", "coordinates": [56.142822, 36.893656] }, "properties": { "name": "Арника", "address": "стр. 69", "phone": ["+7 (916) 582-98-39"], "id": "1327", "city": "КРИВЦОВО" }},
      { "type": "Feature", "geometry": { "type": "Point", "coordinates": [55.879748, 36.799845] }, "properties": { "name": "Глобусэкофарм", "address": "", "phone": ["+7 (903) 291-77-44"], "id": "6778", "city": "КРЮЧКОВО" }},
      { "type": "Feature", "geometry": { "type": "Point", "coordinates": [55.589066, 38.917273] }, "properties": { "name": "Неринга", "address": "Коммунистическая, д. 6", "phone": ["+7 (4964) 11-21-27"], "id": "112189", "city": "КУРОВСКОЕ" }},
      { "type": "Feature", "geometry": { "type": "Point", "coordinates": [55.977386, 36.646033] }, "properties": { "name": "ЛеО", "address": "д. 6", "phone": ["+7 (906) 057-98-84"], "id": "112181", "city": "КУРСАКОВО" }},
      { "type": "Feature", "geometry": { "type": "Point", "coordinates": [55.68224, 37.1433297] }, "properties": { "name": "Ла Сантэ Плюс", "social": true,  "address": "стр. 25", "phone": ["+7 (495) 662-17-52"], "id": "112211", "city": "ЛАПИНО"}},
      { "type": "Feature", "geometry": { "type": "Point", "coordinates": [55.606853, 37.33207] }, "properties": { "name": "ИСТОЧНИК ЗДОРОВЬЯ", "address": "Акатовская, д. 9, а", "phone": ["+7 (495) 122-22-82"], "id": "164526", "city": "ЛАПШИНКА" }},
      { "type": "Feature", "geometry": { "type": "Point", "coordinates": [56.081358, 37.924728] }, "properties": { "name": "ВиоЛек", "address": "Пушкинская, д. 9\/30", "phone": ["+7 (929) 982-50-22"], "id": "163838", "city": "ЛЕСНОЙ" }},
      { "type": "Feature", "geometry": { "type": "Point", "coordinates": [55.632626, 37.211507] }, "properties": { "name": "СБ", "address": "Центральная, д. 8", "phone": ["+7 (926) 318-10-41"], "id": "1711", "city": "ЛЕСНОЙ ГОРОДОК" }},
      { "type": "Feature", "geometry": { "type": "Point", "coordinates": [55.632992, 37.212324] }, "properties": { "name": "СБ", "address": "Школьная, д. 1", "phone": ["+7 (495) 609-62-38", "+7 (499) 408-02-37"], "id": "3029", "city": "ЛЕСНОЙ ГОРОДОК" }},
      { "type": "Feature", "geometry": { "type": "Point", "coordinates": [55.958074, 37.862651] }, "properties": { "name": "Столетник", "address": "Ленина, д. 2, а", "phone": ["+7 (926) 641-40-44"], "id": "11472", "city": "ЛЕСНЫЕ ПОЛЯНЫ" }},
      { "type": "Feature", "geometry": { "type": "Point", "coordinates": [55.716093, 38.957787] }, "properties": { "name": "МЕГА ФАРМ", "address": "Октябрьская, д. 20", "phone": ["+7 (903) 279-21-13"], "id": "124464", "city": "ЛИКИНО-ДУЛЁВО" }},
      { "type": "Feature", "geometry": { "type": "Point", "coordinates": [54.847074, 37.482178] }, "properties": { "name": "Браво-мед", "address": "", "phone": ["+7 (909) 925-02-60"], "id": "31451", "city": "ЛИПИЦЫ" }},
      { "type": "Feature", "geometry": { "type": "Point", "coordinates": [56.006729, 38.139233] }, "properties": { "name": "ЗДОРОВЬЕ", "address": "д. 13", "phone": ["+7 (496) 255-80-53"], "id": "6852", "city": "ЛИТВИНОВО" }},
      { "type": "Feature", "geometry": { "type": "Point", "coordinates": [56.012481, 37.460026] }, "properties": { "name": "Обережник", "address": "Авиационная, д. 11", "phone": ["+7 (926) 119-50-04"], "id": "82203", "city": "ЛОБНЯ" }},
      { "type": "Feature", "geometry": { "type": "Point", "coordinates": [56.048932, 37.503594] }, "properties": { "name": "МИЦАР МО", "address": "Авиационная, д. 14\/16", "phone": ["+7 (963) 711-21-91"], "id": "155479", "city": "ЛОБНЯ" }},
      { "type": "Feature", "geometry": { "type": "Point", "coordinates": [56.017176, 37.462281] }, "properties": { "name": "А-МЕГА", "address": "Заречная, д. 21, а", "phone": ["+7 (903) 754-06-97"], "id": "85585", "city": "ЛОБНЯ" }},
      { "type": "Feature", "geometry": { "type": "Point", "coordinates": [56.024853, 37.419952] }, "properties": { "name": "БиоЛайф", "social": true,  "address": "Краснополянская, д. 28, а", "phone": ["+7 (964) 721-44-81"], "id": "187250", "city": "ЛОБНЯ"}},
      { "type": "Feature", "geometry": { "type": "Point", "coordinates": [56.012241136828, 37.476024723045] }, "properties": { "name": "О Вита", "social": true,  "address": "Ленина, д. 16", "phone": ["+7 (926) 641-40-44"], "id": "2168", "city": "ЛОБНЯ"}},
      { "type": "Feature", "geometry": { "type": "Point", "coordinates": [56.005928, 37.448761] }, "properties": { "name": "ФАРМАКИО", "address": "Лобненский бульвар, д. 5", "phone": ["+7 (916) 516-97-85"], "id": "31699", "city": "ЛОБНЯ" }},
      { "type": "Feature", "geometry": { "type": "Point", "coordinates": [56.01484679, 37.48319063] }, "properties": { "name": "Обережник", "address": "Маяковского, д. 4 Б", "phone": ["+7 (925) 360-60-40"], "id": "21303", "city": "ЛОБНЯ" }},
      { "type": "Feature", "geometry": { "type": "Point", "coordinates": [56.024999, 37.475216] }, "properties": { "name": "ВикТан", "address": "Московская, д. 7", "phone": ["+7 (963) 763-19-72", "+7 (965) 429-71-89", "+7 (967) 283-19-97"], "id": "3836", "city": "ЛОБНЯ" }},
      { "type": "Feature", "geometry": { "type": "Point", "coordinates": [56.012053, 37.475082] }, "properties": { "name": "ВикТан", "address": "Научный городок, д. 23\/1", "phone": ["+7 (965) 109-98-36", "+7 (965) 429-71-89"], "id": "3827", "city": "ЛОБНЯ" }},
      { "type": "Feature", "geometry": { "type": "Point", "coordinates": [56.013855, 37.466548] }, "properties": { "name": "Столетник-Фарма", "address": "Циолковского, д. 6, а", "phone": ["+7 (926) 641-40-44"], "id": "2027", "city": "ЛОБНЯ" }},
      { "type": "Feature", "geometry": { "type": "Point", "coordinates": [56.027157, 37.474004] }, "properties": { "name": "Добрый доктор", "address": "Чайковского, д. 3", "phone": ["+7 (901) 184-71-20"], "id": "31676", "city": "ЛОБНЯ" }},
      { "type": "Feature", "geometry": { "type": "Point", "coordinates": [55.869198, 38.202474] }, "properties": { "name": "Вива Фарма", "address": "Октябрьская, д. 1", "phone": ["+7 (903) 003-79-70"], "id": "31463", "city": "ЛОСИНО ПЕТРОВСКИЙ" }},
      { "type": "Feature", "geometry": { "type": "Point", "coordinates": [55.870329, 38.201378] }, "properties": { "name": "Классика", "address": "Ленина, д. 9", "phone": ["+7 (496) 567-52-12"], "id": "6861", "city": "ЛОСИНО-ПЕТРОВСКИЙ" }},
      { "type": "Feature", "geometry": { "type": "Point", "coordinates": [55.868137, 38.199824] }, "properties": { "name": "ЭЛВИ", "address": "Октябрьская, д. 7", "phone": ["+7 (903) 960-77-35"], "id": "16235", "city": "ЛОСИНО-ПЕТРОВСКИЙ" }},
      { "type": "Feature", "geometry": { "type": "Point", "coordinates": [54.982104, 39.039857] }, "properties": { "name": "Тетра", "address": "Гагарина, д. 16", "phone": ["+7 (496) 632-12-52"], "id": "3586", "city": "ЛУХОВИЦЫ" }},
      { "type": "Feature", "geometry": { "type": "Point", "coordinates": [54.982187, 39.039893] }, "properties": { "name": "Да Сигна", "address": "Гагарина, д. 20", "phone": ["+7 (909) 685-69-00"], "id": "112203", "city": "ЛУХОВИЦЫ" }},
      { "type": "Feature", "geometry": { "type": "Point", "coordinates": [54.944828, 39.035419] }, "properties": { "name": "Тетра", "address": "Жуковского, д. 31, а", "phone": ["+7 (496) 633-34-13"], "id": "3585", "city": "ЛУХОВИЦЫ" }},
      { "type": "Feature", "geometry": { "type": "Point", "coordinates": [54.952765, 39.018064] }, "properties": { "name": "МЕГА ФАРМ", "address": "Пушкина, д. 202, а", "phone": ["+7 (495) 967-69-40", "+7 (903) 754-18-02"], "id": "76566", "city": "ЛУХОВИЦЫ" }},
      { "type": "Feature", "geometry": { "type": "Point", "coordinates": [55.574325, 37.908213] }, "properties": { "name": "Современная Фармацевтика", "address": "Октябрьская, д. 30", "phone": ["+7 (977) 691-34-02"], "id": "31375", "city": "ЛЫТКАРИНО" }},
      { "type": "Feature", "geometry": { "type": "Point", "coordinates": [55.582095, 37.907072] }, "properties": { "name": "Современная Фармацевтика", "address": "Советская, д. 3\/12", "phone": ["+7 (925) 014-88-40"], "id": "31374", "city": "ЛЫТКАРИНО" }},
      { "type": "Feature", "geometry": { "type": "Point", "coordinates": [55.681032, 37.873422] }, "properties": { "name": "Мицар-Н", "address": "3-е Почтовое Отделение, д. 49, корп. 1", "phone": ["+7 (495) 544-60-98"], "id": "155448", "city": "ЛЮБЕРЦЫ" }},
      { "type": "Feature", "geometry": { "type": "Point", "coordinates": [55.682709, 37.865437] }, "properties": { "name": "А-МЕГА", "address": "3-е Почтовое отделение, д. 65", "phone": ["+7 (903) 754-06-68"], "id": "85590", "city": "ЛЮБЕРЦЫ" }},
      { "type": "Feature", "geometry": { "type": "Point", "coordinates": [55.69625, 37.902015] }, "properties": { "name": "Мицар-Н", "address": "Воинов-Интернационалистов, д. 3", "phone": ["+7 (498) 302-17-10"], "id": "155438", "city": "ЛЮБЕРЦЫ" }},
      { "type": "Feature", "geometry": { "type": "Point", "coordinates": [55.683244, 37.89349] }, "properties": { "name": "А-МЕГА", "address": "Волковская, д. 2, б", "phone": ["+7 (903) 289-54-17"], "id": "85591", "city": "ЛЮБЕРЦЫ" }},
      { "type": "Feature", "geometry": { "type": "Point", "coordinates": [55.689897, 37.916397] }, "properties": { "name": "Аптека Неотложка", "address": "Гагарина проспект, д. 22, корп. 2", "phone": ["+7 (495) 545-57-52", "+7 (917) 544-29-30"], "id": "31686", "city": "ЛЮБЕРЦЫ" }},
      { "type": "Feature", "geometry": { "type": "Point", "coordinates": [55.3411304, 38.1414585] }, "properties": { "name": "ИФК АПТЕКИ", "address": "д. 53, а", "phone": ["+7 (495) 915-83-90"], "id": "72672", "city": "ЛЮБЕРЦЫ" }},
      { "type": "Feature", "geometry": { "type": "Point", "coordinates": [55.682975, 37.900784] }, "properties": { "name": "Фармалекс", "address": "Инициативная, д. 1", "phone": ["+7 (495) 554-82-42"], "id": "1394", "city": "ЛЮБЕРЦЫ" }},
      { "type": "Feature", "geometry": { "type": "Point", "coordinates": [55.690491, 37.863576] }, "properties": { "name": "Аптека Неотложка", "address": "Кирова, д. 3", "phone": ["+7 (495) 545-57-52"], "id": "31685", "city": "ЛЮБЕРЦЫ" }},
      { "type": "Feature", "geometry": { "type": "Point", "coordinates": [55.691334, 37.907144] }, "properties": { "name": "Мицар-Н", "address": "Комсомольский проспект, д. 16\/2", "phone": ["+7 (963) 710-34-17"], "id": "155445", "city": "ЛЮБЕРЦЫ" }},
      { "type": "Feature", "geometry": { "type": "Point", "coordinates": [55.694479, 37.907908] }, "properties": { "name": "МАРИОН", "address": "Комсомольский, д. около 17", "phone": ["+7 (915) 321-21-96", "+7 (916) 993-01-02"], "id": "2966", "city": "ЛЮБЕРЦЫ" }},
      { "type": "Feature", "geometry": { "type": "Point", "coordinates": [55.681204, 37.891011] }, "properties": { "name": "МедиКос Фарма", "address": "Октябрьский проспект, д. 141", "phone": ["+7 (495) 554-01-31"], "id": "1187", "city": "ЛЮБЕРЦЫ" }},
      { "type": "Feature", "geometry": { "type": "Point", "coordinates": [55.68956775, 37.87591134] }, "properties": { "name": "Панацея", "social": true,  "address": "пгт. Калинина, д. 49, корп. 1", "phone": ["+7 (495) 565-48-64", "+7 (495) 565-48-65"], "id": "112236", "city": "ЛЮБЕРЦЫ"}},
      { "type": "Feature", "geometry": { "type": "Point", "coordinates": [55.689339, 37.876152] }, "properties": { "name": "Мега Фарм", "address": "поселок Калинина, д. 49, корп. 2", "phone": ["+7 (926) 289-51-80", "+7 (968) 330-66-54"], "id": "139066", "city": "ЛЮБЕРЦЫ" }},
      { "type": "Feature", "geometry": { "type": "Point", "coordinates": [55.687523, 37.904692] }, "properties": { "name": "Фараон Фарм", "address": "Преображенская, д. 6, корп. 2", "phone": ["+7 (965) 324-00-67", "+7 (965) 363-41-44"], "id": "10437", "city": "ЛЮБЕРЦЫ" }},
      { "type": "Feature", "geometry": { "type": "Point", "coordinates": [55.686969, 37.871849] }, "properties": { "name": "Аптека 555", "social": true,  "address": "Проспект Октябрьский, д. 66", "phone": ["+7 (495) 503-11-11", "+7 (495) 503-70-76"], "id": "112126", "city": "ЛЮБЕРЦЫ"}},
      { "type": "Feature", "geometry": { "type": "Point", "coordinates": [55.688893, 37.912256] }, "properties": { "name": "Доктор Пилюлькин", "social": true,  "address": "Проспект Победы, д. 10\/18", "phone": ["+7 (495) 913-83-10"], "id": "112174", "city": "ЛЮБЕРЦЫ"}},
      { "type": "Feature", "geometry": { "type": "Point", "coordinates": [55.641066, 38.01823] }, "properties": { "name": "Метроном ИК", "social": true,  "address": "Малаховская, д. 22", "phone": ["+7 (495) 501-22-81"], "id": "165791", "city": "МАЛАХОВКА"}},
      { "type": "Feature", "geometry": { "type": "Point", "coordinates": [55.643932, 38.011367] }, "properties": { "name": "Акора", "social": true,  "address": "Рельсовая, д. 1", "phone": ["+7 (916) 497-07-31"], "id": "112102", "city": "МАЛАХОВКА"}},
      { "type": "Feature", "geometry": { "type": "Point", "coordinates": [56.005425, 37.80903] }, "properties": { "name": "Грандис", "address": "Школьная, д. 28", "phone": ["+7 (916) 632-78-70"], "id": "1995", "city": "МАМОНТОВКА" }},
      { "type": "Feature", "geometry": { "type": "Point", "coordinates": [56.073037, 37.555256] }, "properties": { "name": "Добрая аптека", "address": "Зеленая, д. 2, а", "phone": ["+7 (499) 713-79-87"], "id": "7010", "city": "МАРФИНО" }},
      { "type": "Feature", "geometry": { "type": "Point", "coordinates": [56.037538, 37.233444] }, "properties": { "name": "Фармасеть", "address": "Куйбышева, д. 2", "phone": ["+7 (925) 276-47-76"], "id": "16484", "city": "МЕНДЕЛЕЕВО" }},
      { "type": "Feature", "geometry": { "type": "Point", "coordinates": [55.512526, 36.040122] },